WeatherPy_Database.csv,City,Lat,Lng,Max Temp,Humidity,Cloudiness,Wind Speed,Country,Date
0,Vaini,-21.2,-175.2,78.8,94,75,10.36,TO,2021-02-07 09:31:32
1,Nishihara,26.1842,127.7558,66.2,52,20,8.05,JP,2021-02-07 09:35:01
2,Rikitea,-23.1203,-134.9692,77.11,74,49,11.3,PF,2021-02-07 09:31:23
3,Ushuaia,-54.8,-68.3,44.6,76,40,9.22,AR,2021-02-07 09:30:10
4,Hermanus,-34.4187,19.2345,69.01,81,99,3.0,ZA,2021-02-07 09:31:28
5,Mount Isa,-20.7333,139.5,82.4,74,100,9.22,AU,2021-02-07 09:32:03
6,Antalaha,-14.9003,50.2788,84.94,63,47,7.4,MG,2021-02-07 09:35:01
7,Honiara,-9.4333,159.95,78.78,82,100,6.44,SB,2021-02-07 09:34:15
8,West Wendover,40.7391,-114.0733,48.2,20,1,12.66,US,2021-02-07 09:32:09
9,Yantal,56.8471,105.2542,22.15,95,100,10.11,RU,2021-02-07 09:35:02
10,Punta Arenas,-53.15,-70.9167,42.8,87,0,5.75,CL,2021-02-07 09:31:31
11,Kapaa,22.0752,-159.319,62.6,77,90,8.05,US,2021-02-07 09:31:23
12,Taksimo,56.3444,114.8794,-8.07,85,100,1.23,RU,2021-02-07 09:35:02
13,Mlonggo,-6.5333,110.7,80.6,89,75,9.22,ID,2021-02-07 09:35:02
14,Asau,46.4333,26.4,28.99,74,98,4.52,RO,2021-02-07 09:31:48
15,Methoni,36.8197,21.7049,62.6,67,20,11.48,GR,2021-02-07 09:35:02
16,Clyde River,70.4692,-68.5914,-4.0,92,90,2.3,CA,2021-02-07 09:31:24
17,Cape Town,-33.9258,18.4232,73.4,53,20,21.85,ZA,2021-02-07 09:30:16
18,Goderich,43.7501,-81.7165,19.4,79,100,13.8,CA,2021-02-07 09:32:06
19,Fare,-16.7,-151.0167,81.77,76,15,12.88,PF,2021-02-07 09:35:03
20,Busselton,-33.65,115.3333,62.01,93,100,3.0,AU,2021-02-07 09:31:25
21,Leningradskiy,69.3833,178.4167,-11.61,72,11,4.72,RU,2021-02-07 09:31:46
22,Bluff,-46.6,168.3333,57.06,89,88,6.6,NZ,2021-02-07 09:31:25
23,Mataura,-46.1927,168.8643,56.1,92,58,2.59,NZ,2021-02-07 09:31:23
24,Puerto Ayora,-0.7393,-90.3518,75.99,96,43,1.99,EC,2021-02-07 09:31:37
25,Albany,42.6001,-73.9662,19.0,55,100,0.87,US,2021-02-07 09:31:23
26,Bethel,41.3712,-73.414,28.0,79,1,3.42,US,2021-02-07 09:31:29
27,Brooks,50.5834,-111.8851,-13.0,84,100,5.75,CA,2021-02-07 09:35:04
28,Teya,60.3778,92.6267,32.38,95,100,7.92,RU,2021-02-07 09:35:05
29,Araucaria,-25.5931,-49.4103,61.0,100,75,4.61,BR,2021-02-07 09:34:49
30,Dubrovka,53.6907,33.5071,6.8,72,20,11.18,RU,2021-02-07 09:35:05
31,Enumclaw,47.2043,-121.9915,44.01,80,100,11.01,US,2021-02-07 09:35:05
32,Hobart,-42.8794,147.3294,59.0,47,20,16.11,AU,2021-02-07 09:29:16
33,Oriximina,-1.7656,-55.8661,74.86,91,100,1.97,BR,2021-02-07 09:32:00
34,Carnarvon,-24.8667,113.6333,86.0,100,40,11.5,AU,2021-02-07 09:31:58
35,Radchenko,56.6803,36.3718,8.98,93,98,11.14,RU,2021-02-07 09:35:06
36,Lenauheim,45.8719,20.7994,54.0,100,0,9.22,RO,2021-02-07 09:35:06
37,Alofi,-19.0595,-169.9187,78.8,94,100,4.61,NU,2021-02-07 09:35:06
38,Victoria,22.2855,114.1577,78.01,36,0,10.36,HK,2021-02-07 09:28:01
39,Henties Bay,-22.116,14.2845,66.99,87,90,5.99,NA,2021-02-07 09:31:50
40,Jamestown,42.097,-79.2353,17.6,53,75,4.61,US,2021-02-07 09:31:35
41,Jetalsar,21.7,70.5833,86.0,22,0,7.36,IN,2021-02-07 09:35:07
42,Sokolo,14.7328,-6.1219,75.45,21,100,19.51,ML,2021-02-07 09:35:07
43,San Patricio,28.017,-97.5169,55.4,71,1,4.61,US,2021-02-07 09:31:46
44,East London,-33.0153,27.9116,77.0,65,20,11.5,ZA,2021-02-07 09:30:01
45,Shush,32.1942,48.2436,64.67,66,100,9.69,IR,2021-02-07 09:34:28
46,Maldonado,-34.6667,-54.9167,63.0,100,20,2.3,UY,2021-02-07 09:35:08
47,Bambous Virieux,-20.3428,57.7575,87.8,62,40,14.97,MU,2021-02-07 09:31:30
48,Imeni Poliny Osipenko,52.4201,136.4853,3.99,92,100,12.48,RU,2021-02-07 09:35:08
49,Cozumel,20.5083,-86.9458,78.01,92,62,10.98,MX,2021-02-07 09:35:08
50,Arraial Do Cabo,-22.9661,-42.0278,73.4,83,75,6.91,BR,2021-02-07 09:31:25
51,Lebu,-37.6167,-73.65,56.79,93,75,3.65,CL,2021-02-07 09:31:25
52,Flin Flon,54.7682,-101.865,-37.26,79,19,8.14,CA,2021-02-07 09:35:08
53,Svetlaya,46.5389,138.3297,4.98,86,45,11.01,RU,2021-02-07 09:35:09
54,Paragould,36.0584,-90.4973,30.2,80,90,9.22,US,2021-02-07 09:35:06
55,Nanortalik,60.1432,-45.2371,32.23,89,67,4.09,GL,2021-02-07 09:32:04
56,Nhulunbuy,-12.2333,136.7667,78.8,89,95,9.22,AU,2021-02-07 09:35:09
57,Parga,39.2831,20.3964,60.8,82,20,9.22,GR,2021-02-07 09:35:09
58,Komsomolskiy,40.4272,71.7189,53.6,37,83,6.91,UZ,2021-02-07 09:35:09
59,Fairfield,41.2668,-73.3162,32.0,69,1,5.75,US,2021-02-07 09:35:09
60,Lorengau,-2.0226,147.2712,82.33,80,81,6.93,PG,2021-02-07 09:32:39
61,Hilo,19.7297,-155.09,68.0,73,75,4.61,US,2021-02-07 09:31:27
62,Mar Del Plata,-38.0023,-57.5575,66.0,82,75,5.75,AR,2021-02-07 09:31:27
63,Neftcala,39.3742,49.2472,60.71,40,0,12.15,AZ,2021-02-07 09:35:00
64,Dikson,73.5069,80.5464,-27.11,87,91,9.6,RU,2021-02-07 09:31:33
65,Yellowknife,62.456,-114.3525,-45.99,73,1,4.61,CA,2021-02-07 09:31:33
66,Mount Gambier,-37.8333,140.7667,60.8,63,90,16.11,AU,2021-02-07 09:31:55
67,Port Hedland,-20.3167,118.5667,87.8,58,0,17.27,AU,2021-02-07 09:31:18
68,Severo-Kurilsk,50.6789,156.125,23.41,93,100,27.07,RU,2021-02-07 09:32:21
69,Mogadishu,2.0371,45.3438,84.2,58,40,20.71,SO,2021-02-07 09:35:11
70,Tuktoyaktuk,69.4541,-133.0374,-15.59,87,100,16.69,CA,2021-02-07 09:31:42
71,Belmonte,-15.8631,-38.8828,77.0,88,75,5.75,BR,2021-02-07 09:35:11
72,Lavrentiya,65.5833,-171.0,-12.46,78,0,4.68,RU,2021-02-07 09:32:31
73,Hun,29.1268,15.9477,77.54,16,100,17.27,LY,2021-02-07 09:35:11
74,Quatre Cocos,-20.2078,57.7625,87.8,62,40,14.97,MU,2021-02-07 09:31:25
75,Ribeira Grande,38.5167,-28.7,60.8,88,20,12.66,PT,2021-02-07 09:31:28
76,Nara,34.6851,135.8049,53.6,54,40,11.5,JP,2021-02-07 09:35:12
77,Sao Filipe,14.8961,-24.4956,69.19,71,19,14.74,CV,2021-02-07 09:31:24
78,Simpang,-1.2667,104.0833,83.25,68,100,7.18,ID,2021-02-07 09:35:12
79,Barrow,71.2906,-156.7887,-7.6,77,75,12.66,US,2021-02-07 09:31:24
80,Husavik,66.0449,-17.3389,33.8,75,75,3.44,IS,2021-02-07 09:32:18
81,Georgetown,5.4112,100.3354,89.6,58,20,10.36,MY,2021-02-07 09:30:07
82,Atuona,-9.8,-139.0333,79.32,76,70,21.85,PF,2021-02-07 09:31:35
83,Eshowe,-28.8865,31.4699,82.36,66,62,11.77,ZA,2021-02-07 09:35:12
84,Saskylakh,71.9167,114.0833,-38.94,78,25,11.12,RU,2021-02-07 09:32:19
85,Avarua,-21.2078,-159.775,78.8,83,6,3.44,CK,2021-02-07 09:31:51
86,Tabas,33.5959,56.9244,69.8,14,0,2.3,IR,2021-02-07 09:34:28
87,Corinto,37.9407,22.9573,63.0,49,75,1.99,GR,2021-02-07 09:34:36
88,Nikolskoye,59.7035,30.7861,14.0,85,75,15.66,RU,2021-02-07 09:31:38
89,Khatanga,71.9667,102.5,-31.59,79,0,8.55,RU,2021-02-07 09:31:33
90,Vao,-22.6667,167.4833,77.95,87,0,11.18,NC,2021-02-07 09:32:42
91,Marawi,7.9986,124.2928,78.01,91,100,1.01,PH,2021-02-07 09:32:17
92,Port Elizabeth,-33.918,25.5701,78.8,61,40,24.16,ZA,2021-02-07 09:30:07
93,Nehe,48.4833,124.8333,-4.81,88,0,5.32,CN,2021-02-07 09:35:15
94,Baft,29.234,56.6057,53.8,34,56,9.1,IR,2021-02-07 09:35:15
95,Narsaq,60.9167,-46.05,41.0,30,75,44.87,GL,2021-02-07 09:31:36
96,Patti,31.2808,74.8572,71.6,52,0,6.91,IN,2021-02-07 09:35:15
97,Ust-Kuyga,70.0167,135.6,-29.31,82,32,4.76,RU,2021-02-07 09:35:15
98,Haines Junction,60.7522,-137.5108,-18.4,69,95,1.14,CA,2021-02-07 09:32:18
99,Perdoes,-21.0908,-45.0914,62.08,89,100,5.46,BR,2021-02-07 09:34:50
100,Ponta Do Sol,32.6667,-17.1,59.0,63,88,1.01,PT,2021-02-07 09:31:49
101,Okha,53.5739,142.9478,7.29,94,100,20.07,RU,2021-02-07 09:35:16
102,Muros,42.7762,-9.0603,44.01,94,100,1.01,ES,2021-02-07 09:35:16
103,Qostanay,53.1667,63.5833,10.4,67,0,35.79,KZ,2021-02-07 09:35:16
104,Isangel,-19.55,169.2667,79.43,76,75,4.41,VU,2021-02-07 09:27:59
105,Tucuman,-26.8241,-65.2226,66.2,88,0,5.75,AR,2021-02-07 09:32:44
106,Ambilobe,-13.2,49.05,87.3,65,99,5.61,MG,2021-02-07 09:32:40
107,Bredasdorp,-34.5322,20.0403,69.8,64,100,8.05,ZA,2021-02-07 09:31:40
108,Huangzhou,30.45,114.8,50.0,100,90,4.47,CN,2021-02-07 09:34:53
109,Aklavik,68.2191,-135.0107,-13.0,77,100,5.75,CA,2021-02-07 09:31:48
110,Berlevag,70.8578,29.0864,24.15,93,100,21.16,NO,2021-02-07 09:32:42
111,Athabasca,54.7169,-113.2854,-40.0,66,0,2.3,CA,2021-02-07 09:32:38
112,Port Alfred,-33.5906,26.891,75.99,76,41,5.01,ZA,2021-02-07 09:31:27
113,Terrak,65.087,12.3715,24.8,68,0,4.61,NO,2021-02-07 09:35:18
114,Olawa,50.9466,17.2926,21.99,81,100,5.01,PL,2021-02-07 09:34:39
115,Yeppoon,-23.1333,150.7333,87.8,58,95,12.66,AU,2021-02-07 09:35:18
116,Monster,52.0258,4.175,26.01,93,75,25.32,NL,2021-02-07 09:35:18
117,Ossipee,43.6854,-71.1167,15.01,76,92,2.3,US,2021-02-07 09:35:19
118,Kodiak,57.79,-152.4072,23.0,68,1,6.91,US,2021-02-07 09:31:39
119,Bonavista,48.6499,-53.1147,32.0,74,0,11.5,CA,2021-02-07 09:31:47
120,Salamiyah,35.0113,37.0532,64.56,47,0,11.72,SY,2021-02-07 09:34:40
121,Ayan,56.45,138.1667,-3.41,80,100,19.71,RU,2021-02-07 09:35:19
122,Beringovskiy,63.05,179.3167,-6.97,91,99,12.91,RU,2021-02-07 09:32:15
123,Starokozache,46.3372,29.9853,28.0,86,90,11.18,UA,2021-02-07 09:35:19
124,Nelson Bay,-32.7167,152.15,73.4,83,0,10.36,AU,2021-02-07 09:35:19
125,Inhambane,-23.865,35.3833,89.6,58,40,4.61,MZ,2021-02-07 09:31:33
126,New Norfolk,-42.7826,147.0587,57.99,54,4,1.01,AU,2021-02-07 09:31:33
127,Nome,64.5011,-165.4064,10.4,85,90,3.49,US,2021-02-07 09:31:44
128,Hofn,64.2539,-15.2082,34.14,90,100,16.33,IS,2021-02-07 09:35:20
129,Bengkulu,-3.8004,102.2655,85.26,68,100,12.3,ID,2021-02-07 09:27:00
130,Mahebourg,-20.4081,57.7,87.8,62,40,14.97,MU,2021-02-07 09:32:01
131,Wachtersbach,50.2551,9.2956,37.0,93,100,10.94,DE,2021-02-07 09:35:20
132,Grand Gaube,-20.0064,57.6608,84.99,72,44,10.0,MU,2021-02-07 09:32:30
133,Chokurdakh,70.6333,147.9167,-27.78,84,0,4.74,RU,2021-02-07 09:31:22
134,Pisco,-13.7,-76.2167,71.6,83,100,0.87,PE,2021-02-07 09:31:43
135,Akyab,20.15,92.9,81.27,41,0,21.21,MM,2021-02-07 09:31:53
136,Bonnyville,54.2668,-110.735,-32.8,75,1,2.51,CA,2021-02-07 09:35:21
137,Bathsheba,13.2167,-59.5167,78.8,69,75,20.71,BB,2021-02-07 09:32:44
138,Kloulklubed,7.0419,134.2556,80.6,89,90,6.91,PW,2021-02-07 09:32:34
139,Eyl,7.9803,49.8164,85.28,47,35,19.13,SO,2021-02-07 09:32:32
140,Bakchar,57.0186,82.0711,32.72,94,95,17.83,RU,2021-02-07 09:35:21
141,Sao Jose Da Coroa Grande,-8.8978,-35.1478,80.13,76,43,8.86,BR,2021-02-07 09:35:21
142,Tasiilaq,65.6145,-37.6368,32.0,55,20,17.27,GL,2021-02-07 09:31:58
143,Cabo San Lucas,22.8909,-109.9124,57.99,72,53,4.18,MX,2021-02-07 09:32:10
144,Valparaiso,-33.0393,-71.6273,60.8,88,90,3.44,CL,2021-02-07 09:35:22
145,Unguia,8.0434,-77.0945,75.61,89,100,1.66,CO,2021-02-07 09:35:22
146,Gambissara,13.2382,-14.3108,77.38,19,4,12.41,SN,2021-02-07 09:35:22
147,Xingyi,24.1877,102.817,50.16,92,100,2.3,CN,2021-02-07 09:35:22
148,Priladozhskiy,59.85,31.4833,14.0,48,100,10.83,RU,2021-02-07 09:35:22
149,Cidreira,-30.1811,-50.2056,67.19,79,0,10.89,BR,2021-02-07 09:32:00
150,Vardo,70.3705,31.1107,25.32,93,100,25.19,NO,2021-02-07 09:31:29
151,Ketchikan,55.3422,-131.6461,32.0,74,1,14.97,US,2021-02-07 09:32:27
152,Padang,-0.9492,100.3543,91.4,55,20,8.05,ID,2021-02-07 09:31:49
153,Olafsvik,64.8945,-23.7142,33.33,85,0,14.38,IS,2021-02-07 09:32:28
154,Vila Franca Do Campo,37.7167,-25.4333,60.01,94,75,24.16,PT,2021-02-07 09:31:38
155,Kampene,-3.6,26.6667,81.45,79,62,2.06,CD,2021-02-07 09:34:36
156,Saint-Pierre,-21.3393,55.4781,87.8,62,0,10.36,RE,2021-02-07 09:34:34
157,Kawalu,-7.3817,108.2082,75.85,88,96,1.48,ID,2021-02-07 09:35:23
158,Beaverlodge,55.2166,-119.4361,-41.8,66,75,5.75,CA,2021-02-07 09:35:24
159,Ulaangom,49.9811,92.0667,-1.28,91,95,0.74,MN,2021-02-07 09:35:24
160,Saint-Augustin,51.226,-58.6502,26.04,95,100,19.01,CA,2021-02-07 09:32:21
161,Coihaique,-45.5752,-72.0662,50.0,76,0,3.44,CL,2021-02-07 09:35:25
162,Qaanaaq,77.484,-69.3632,10.24,90,100,1.92,GL,2021-02-07 09:31:29
163,Gigmoto,13.7796,124.39,79.41,84,83,13.29,PH,2021-02-07 09:35:25
164,Katsuura,35.1333,140.3,53.6,82,40,5.75,JP,2021-02-07 09:32:27
165,Upernavik,72.7868,-56.1549,21.7,80,100,6.31,GL,2021-02-07 09:31:57
166,Norman Wells,65.282,-126.8329,-20.2,76,75,16.11,CA,2021-02-07 09:31:39
167,Acheng,45.5454,126.977,3.2,72,0,6.71,CN,2021-02-07 09:34:54
168,Talnakh,69.4865,88.3972,-27.83,71,0,2.89,RU,2021-02-07 09:31:23
169,Dingle,10.9995,122.6711,77.38,88,49,10.33,PH,2021-02-07 09:31:45
170,Ponta Delgada,37.7333,-25.6667,60.01,94,75,24.16,PT,2021-02-07 09:35:26
171,Butaritari,3.0707,172.7902,81.37,81,57,18.43,KI,2021-02-07 09:31:47
172,Kutum,14.2,24.6667,71.55,20,24,14.81,SD,2021-02-07 09:35:26
173,Hithadhoo,-0.6,73.0833,82.74,70,60,10.94,MV,2021-02-07 09:31:47
174,Tarifa,36.0139,-5.607,55.4,82,20,20.71,ES,2021-02-07 09:34:44
175,Reconquista,-29.15,-59.65,62.33,74,0,5.23,AR,2021-02-07 09:35:15
176,Manta,-0.95,-80.7333,77.0,88,90,4.61,EC,2021-02-07 09:35:02
177,Avera,33.194,-82.5271,39.2,94,90,4.61,US,2021-02-07 09:31:58
178,Dandong,40.1292,124.3947,20.75,84,0,15.48,CN,2021-02-07 09:31:45
179,Bambui,-20.0064,-45.9769,68.41,90,79,2.26,BR,2021-02-07 09:35:27
180,Goure,13.9835,10.2704,75.99,15,51,8.01,NE,2021-02-07 09:35:27
181,Xam Nua,20.4197,104.0439,71.94,63,69,3.4,LA,2021-02-07 09:35:27
182,Savannah Bight,16.45,-85.85,79.0,90,0,3.0,HN,2021-02-07 09:35:27
183,College,64.8569,-147.8028,-4.0,71,75,2.21,US,2021-02-07 09:32:07
184,Eregli,37.5133,34.0467,61.81,29,0,3.04,TR,2021-02-07 09:35:27
185,Akdepe,42.0551,59.3788,53.6,66,0,11.5,TM,2021-02-07 09:35:28
186,Kaitangata,-46.2817,169.8464,61.0,90,31,3.0,NZ,2021-02-07 09:32:10
187,Nemuro,43.3236,145.575,17.6,73,75,6.91,JP,2021-02-07 09:35:28
188,Selishche,56.8879,33.2691,9.82,94,100,10.02,RU,2021-02-07 09:35:28
189,Luzhou,28.8724,105.4405,65.66,39,83,3.98,CN,2021-02-07 09:35:20
190,Lompoc,34.6391,-120.4579,55.0,100,90,4.61,US,2021-02-07 09:31:38
191,Gohpur,26.8833,93.6333,80.6,41,20,3.44,IN,2021-02-07 09:35:28
192,Geraldton,-28.7667,114.6,73.4,73,75,19.57,AU,2021-02-07 09:33:15
193,Weligama,5.9667,80.4167,84.51,68,41,3.51,LK,2021-02-07 09:35:29
194,Salalah,17.0151,54.0924,78.8,53,75,11.5,OM,2021-02-07 09:30:39
195,Kamiiso,41.8167,140.65,24.8,58,40,19.57,JP,2021-02-07 09:35:29
196,Flinders,-34.5833,150.8552,72.0,76,33,1.01,AU,2021-02-07 09:31:29
197,Ilhabela,-23.7781,-45.3581,72.88,80,52,3.18,BR,2021-02-07 09:34:48
198,Kihei,20.785,-156.4656,64.99,77,20,5.19,US,2021-02-07 09:35:29
199,Bubaque,11.2833,-15.8333,74.91,49,25,18.81,GW,2021-02-07 09:31:39
200,Sitka,57.0531,-135.33,28.4,74,75,4.61,US,2021-02-07 09:31:55
201,Wakkanai,45.4094,141.6739,6.8,85,20,4.61,JP,2021-02-07 09:30:44
202,Kosa,59.9445,54.9977,-8.1,89,100,8.37,RU,2021-02-07 09:35:30
203,Yerbogachen,61.2767,108.0108,12.92,96,100,7.63,RU,2021-02-07 09:32:07
204,Bedesa,8.9,40.7833,67.66,54,88,4.07,ET,2021-02-07 09:34:19
205,Surt,31.2089,16.5887,72.72,26,100,15.99,LY,2021-02-07 09:34:52
206,Faanui,-16.4833,-151.75,82.04,73,23,11.83,PF,2021-02-07 09:32:01
207,Naze,28.3667,129.4833,60.8,67,20,4.61,JP,2021-02-07 09:32:02
208,Rio Grande,-32.035,-52.0986,66.0,97,4,6.02,BR,2021-02-07 09:34:51
209,Hami,42.8,93.45,42.91,53,0,4.38,CN,2021-02-07 09:35:31
210,Ust-Ilimsk,58.0006,102.6619,26.76,97,100,7.67,RU,2021-02-07 09:35:31
211,Provideniya,64.3833,-173.3,-4.22,79,0,13.29,RU,2021-02-07 09:31:44
212,Beloha,-25.1667,45.05,89.28,54,74,7.85,MG,2021-02-07 09:35:25
213,Hokitika,-42.7167,170.9667,58.77,85,0,2.06,NZ,2021-02-07 09:35:32
214,Petrolina,-9.3986,-40.5008,77.0,78,0,3.44,BR,2021-02-07 09:34:51
215,Shimorskoye,55.3244,42.0267,1.27,90,99,11.32,RU,2021-02-07 09:35:32
216,Serov,59.6033,60.5787,-8.95,91,100,5.77,RU,2021-02-07 09:35:20
217,Eastbourne,50.7687,0.2845,34.0,93,100,4.0,GB,2021-02-07 09:35:32
218,Awjilah,29.1081,21.2869,74.86,22,60,13.67,LY,2021-02-07 09:35:32
219,Milkovo,54.7167,158.6167,22.93,96,100,6.13,RU,2021-02-07 09:35:33
220,Broome,42.2506,-75.833,19.4,45,1,6.91,US,2021-02-07 09:32:07
221,China,25.7,-99.2333,58.1,37,0,3.04,MX,2021-02-07 09:35:33
222,Sambava,-14.2667,50.1667,85.03,64,72,8.32,MG,2021-02-07 09:31:38
223,Ancud,-41.8697,-73.8203,51.01,81,0,3.44,CL,2021-02-07 09:31:35
224,Anadyr,64.75,177.4833,-7.01,71,0,4.47,RU,2021-02-07 09:32:35
225,Fortuna,40.5982,-124.1573,46.99,100,90,4.34,US,2021-02-07 09:32:28
226,Mandalgovi,45.7625,106.2708,16.34,80,0,9.35,MN,2021-02-07 09:34:41
227,Esmeralda,21.8525,-78.1169,69.8,100,0,4.61,CU,2021-02-07 09:35:34
228,Hammerfest,70.6634,23.6821,24.8,86,75,20.71,NO,2021-02-07 09:35:34
229,Elesbao Veloso,-6.2019,-42.1403,75.11,79,77,1.52,BR,2021-02-07 09:35:34
230,Sistranda,63.7256,8.834,21.2,93,40,9.22,NO,2021-02-07 09:32:17
231,Glendive,47.1053,-104.7125,-9.4,70,90,16.11,US,2021-02-07 09:35:34
232,Rawson,-43.3002,-65.1023,57.16,64,100,11.81,AR,2021-02-07 09:31:45
233,Kavieng,-2.5744,150.7967,83.59,75,50,8.52,PG,2021-02-07 09:31:56
234,Brownsville,25.9018,-97.4975,55.4,94,90,3.44,US,2021-02-07 09:35:34
235,Casa Nova,-9.4167,-41.1333,77.0,78,0,3.44,BR,2021-02-07 09:35:34
236,Yulara,-25.2406,130.9889,96.8,15,0,12.66,AU,2021-02-07 09:32:27
237,Marzuq,14.4,46.4667,78.22,22,50,8.46,YE,2021-02-07 09:35:35
238,Cabatuan,10.8794,122.486,77.45,86,45,12.86,PH,2021-02-07 09:35:35
239,Klyuchi,52.2667,79.1667,27.09,93,34,18.61,RU,2021-02-07 09:35:35
240,Guerrero Negro,27.9769,-114.0611,56.44,71,1,2.57,MX,2021-02-07 09:32:42
241,Desbiens,48.4178,-71.9495,14.0,72,20,6.91,CA,2021-02-07 09:35:35
242,Westport,41.1415,-73.3579,33.01,69,1,5.75,US,2021-02-07 09:35:36
243,Kousseri,12.0769,15.0306,80.6,12,31,11.5,CM,2021-02-07 09:35:36
244,Tyup,42.7276,78.3648,36.66,79,93,3.47,KG,2021-02-07 09:35:36
245,Tiksi,71.6872,128.8694,-26.77,84,100,6.6,RU,2021-02-07 09:31:56
246,Eydhafushi,5.1033,73.0708,81.63,75,19,12.75,MV,2021-02-07 09:35:36
247,Emerald,-23.5333,148.1667,84.99,89,96,6.91,AU,2021-02-07 09:35:36
248,Mana,5.6592,-53.7767,76.08,89,99,10.69,GF,2021-02-07 09:35:36
249,Vytegra,61.0064,36.4481,-0.38,88,17,8.14,RU,2021-02-07 09:35:37
250,Airai,-8.9266,125.4092,63.82,100,98,1.36,TL,2021-02-07 09:31:31
251,Tongren,27.7172,109.1853,57.02,81,100,4.83,CN,2021-02-07 09:34:08
252,Sinnamary,5.3833,-52.95,77.05,87,98,13.51,GF,2021-02-07 09:31:53
253,Tuatapere,-46.1333,167.6833,55.65,87,79,3.0,NZ,2021-02-07 09:31:35
254,Sabla,12.7525,4.7077,85.93,13,51,15.41,NG,2021-02-07 09:35:37
255,Hasaki,35.7333,140.8333,54.0,47,20,4.61,JP,2021-02-07 09:27:23
256,Zapolyarnyy,69.4154,30.8136,23.0,86,40,16.11,RU,2021-02-07 09:35:21
257,Baykit,61.67,96.37,24.64,95,100,3.71,RU,2021-02-07 09:35:37
258,Te Anau,-45.4167,167.7167,56.79,74,81,4.25,NZ,2021-02-07 09:24:52
259,Esperance,-33.8667,121.9,66.2,72,90,17.27,AU,2021-02-07 09:30:35
260,Erzin,36.9559,36.2,66.2,68,20,12.66,TR,2021-02-07 09:35:38
261,Yendi,9.4427,-0.0099,91.26,43,87,5.68,GH,2021-02-07 09:35:38
262,Cadillac,44.2519,-85.4012,-0.4,85,40,4.61,US,2021-02-07 09:35:38
263,Zhangye,38.9342,100.4517,41.77,45,43,2.06,CN,2021-02-07 09:32:46
264,Fallon,39.4735,-118.7774,39.99,69,1,8.05,US,2021-02-07 09:35:38
265,Gushi,34.6425,109.5843,55.51,34,89,5.61,CN,2021-02-07 09:35:38
266,Ludvika,60.1496,15.1878,16.0,79,13,8.05,SE,2021-02-07 09:35:39
267,Saly,47.95,20.6667,32.94,90,100,8.97,HU,2021-02-07 09:35:39
268,Cao Bang,22.6667,106.25,78.93,47,19,5.64,VN,2021-02-07 09:35:12
269,Sungaipenuh,-2.0833,101.3833,74.89,71,96,3.89,ID,2021-02-07 09:35:25
270,Coruripe,-10.1256,-36.1756,79.41,77,94,11.81,BR,2021-02-07 09:34:50
271,Totness,5.8833,-56.3167,75.43,90,74,10.0,SR,2021-02-07 09:34:15
272,Noumea,-22.2763,166.4572,80.01,94,90,3.44,NC,2021-02-07 09:34:30
273,Saldanha,-33.0117,17.9442,77.0,50,39,17.27,ZA,2021-02-07 09:31:54
274,Lima,-12.0432,-77.0282,73.0,78,75,4.61,PE,2021-02-07 09:29:43
275,Namibe,-15.1961,12.1522,73.4,73,75,9.71,AO,2021-02-07 09:35:40
276,Sillod,20.3,75.65,82.4,26,2,2.3,IN,2021-02-07 09:34:23
277,Tazovskiy,67.4667,78.7,-18.45,86,100,16.84,RU,2021-02-07 09:35:40
278,Ujjain,23.1833,75.7667,71.6,17,0,4.61,IN,2021-02-07 09:35:40
279,Kruisfontein,-34.0033,24.7314,80.01,58,0,8.99,ZA,2021-02-07 09:32:31
280,Iqaluit,63.7506,-68.5145,24.8,54,1,14.97,CA,2021-02-07 09:31:33
281,Vallenar,-28.5708,-70.7581,55.6,83,0,1.43,CL,2021-02-07 09:35:02
282,Cotonou,6.3654,2.4183,84.2,84,40,3.44,BJ,2021-02-07 09:35:41
283,Marrakesh,31.6315,-8.0083,51.8,76,75,3.44,MA,2021-02-07 09:34:13
284,High Level,58.5169,-117.136,-40.0,67,1,3.44,CA,2021-02-07 09:31:53
285,Mehendiganj,22.8167,90.5333,77.77,34,29,9.86,BD,2021-02-07 09:35:41
286,Buchanan,5.8808,-10.0467,77.0,94,40,3.44,LR,2021-02-07 09:35:41
287,Cherskiy,68.75,161.3,-2.74,79,0,4.63,RU,2021-02-07 09:32:02
288,Coquimbo,-29.9533,-71.3436,55.4,88,20,2.3,CL,2021-02-07 09:24:51
289,Marakkanam,12.2,79.95,80.92,55,10,19.04,IN,2021-02-07 09:34:23
290,Zhigansk,66.7697,123.3711,-29.27,82,100,15.73,RU,2021-02-07 09:31:34
291,Kirakira,-10.4544,161.9205,79.14,82,100,7.47,SB,2021-02-07 09:34:15
292,Pochutla,15.7432,-96.4661,73.99,89,2,3.94,MX,2021-02-07 09:35:42
293,Pringsewu,-5.3582,104.9744,81.03,86,100,0.81,ID,2021-02-07 09:35:42
294,Waddan,29.1614,16.139,77.41,16,100,16.13,LY,2021-02-07 09:34:52
295,Shache,38.4167,77.2406,50.23,38,7,10.71,CN,2021-02-07 09:32:09
296,Batabano,22.7164,-82.2881,73.4,100,20,4.61,CU,2021-02-07 09:35:42
297,Hamilton,39.1834,-84.5333,21.2,79,90,9.22,US,2021-02-07 09:31:09
298,Ahipara,-35.1667,173.1667,61.43,83,66,5.77,NZ,2021-02-07 09:32:35
299,Mussomeli,37.5778,13.7513,63.0,53,85,1.01,IT,2021-02-07 09:35:43
300,Miyako,39.6367,141.9525,33.42,87,9,7.34,JP,2021-02-07 09:28:20
301,Abbeville,50.1,1.8333,32.0,85,93,8.48,FR,2021-02-07 09:35:43
302,Bayevo,53.2833,80.7667,26.65,93,44,20.85,RU,2021-02-07 09:35:43
303,Kavaratti,10.5669,72.642,81.95,63,2,7.78,IN,2021-02-07 09:32:16
304,Oktyabrskiy,54.4815,53.471,-3.06,88,100,14.7,RU,2021-02-07 09:32:00
305,Ledyard,41.4398,-72.0142,33.01,74,1,4.61,US,2021-02-07 09:35:43
306,Mbeya,-8.9,33.45,72.39,79,61,3.27,TZ,2021-02-07 09:34:16
307,Mayumba,-3.432,10.6554,80.69,81,84,1.3,GA,2021-02-07 09:35:44
308,Mercedes,-34.6515,-59.4307,62.01,92,0,5.79,AR,2021-02-07 09:35:44
309,Polgardi,47.061,18.302,44.6,81,0,9.22,HU,2021-02-07 09:35:44
310,Verkhnevilyuysk,63.4453,120.3167,-19.8,87,67,6.53,RU,2021-02-07 09:35:44
311,Barrhead,55.7992,-4.3929,34.0,80,90,14.97,GB,2021-02-07 09:32:37
312,Bihoro,43.8228,144.1044,14.0,79,75,6.91,JP,2021-02-07 09:34:46
313,Nurota,40.5614,65.6886,57.2,62,100,6.91,UZ,2021-02-07 09:35:44
314,Castro,-24.7911,-50.0119,54.95,97,45,3.6,BR,2021-02-07 09:31:43
315,Dunedin,-45.8742,170.5036,60.01,90,5,4.0,NZ,2021-02-07 09:27:01
316,Rio Cuarto,-33.1307,-64.3499,64.4,77,0,6.91,AR,2021-02-07 09:35:45
317,Matara,5.9485,80.5353,85.8,65,46,6.13,LK,2021-02-07 09:35:45
318,Aborlan,9.4352,118.5492,86.0,70,20,13.8,PH,2021-02-07 09:35:46
319,Rudbar,30.15,62.6,76.93,15,0,3.42,AF,2021-02-07 09:35:46
320,Sikasso,10.9167,-7.0,85.89,14,14,8.95,ML,2021-02-07 09:35:46
321,Wasilla,61.5814,-149.4394,10.4,84,90,1.61,US,2021-02-07 09:35:46
322,Changchun,43.88,125.3228,6.8,56,0,4.47,CN,2021-02-07 09:35:46
323,Paamiut,61.994,-49.6678,33.69,80,100,7.43,GL,2021-02-07 09:35:46
324,Hambantota,6.1241,81.1185,89.6,66,20,13.8,LK,2021-02-07 09:24:49
325,Coahuayana,18.7333,-103.6833,69.91,85,40,3.47,MX,2021-02-07 09:32:32
326,Faya,18.3851,42.4509,64.4,45,20,14.97,SA,2021-02-07 09:31:51
327,Saint-Philippe,-21.3585,55.7679,87.8,62,0,10.36,RE,2021-02-07 09:31:39
328,Santa Rita Do Sapucai,-22.2522,-45.7033,63.0,88,48,2.01,BR,2021-02-07 09:35:48
329,Tromso,69.6496,18.957,28.4,86,40,11.5,NO,2021-02-07 09:35:48
330,Alice Springs,-23.7,133.8833,89.6,18,22,14.97,AU,2021-02-07 09:35:48
331,Longyearbyen,78.2186,15.6401,19.4,73,75,9.22,SJ,2021-02-07 09:32:19
332,Fengzhen,40.4394,113.1536,24.1,69,0,3.91,CN,2021-02-07 09:34:54
333,Saint-Louis,16.3333,-15.0,62.6,55,0,2.3,SN,2021-02-07 09:35:48
334,Balod,20.73,81.2047,83.71,15,2,7.58,IN,2021-02-07 09:34:24
335,Chuy,-33.6971,-53.4616,65.48,82,0,2.06,UY,2021-02-07 09:31:53
336,La Montanita,1.4766,-75.4398,72.97,90,99,1.23,CO,2021-02-07 09:35:49
337,Uddevalla,58.3478,11.9424,23.0,86,90,11.5,SE,2021-02-07 09:24:50
338,Kudahuvadhoo,2.6708,72.8944,82.0,75,65,15.82,MV,2021-02-07 09:31:44
339,Verkhnyaya Inta,65.9811,60.3094,-15.41,88,100,17.22,RU,2021-02-07 09:32:17
340,Tungor,53.3808,142.9564,7.12,94,100,20.24,RU,2021-02-07 09:35:49
341,Hamina,60.5697,27.1979,19.0,86,90,10.36,FI,2021-02-07 09:35:49
342,Batemans Bay,-35.7167,150.1833,68.0,79,62,4.0,AU,2021-02-07 09:35:50
343,Corrente,-3.7367,-43.3394,74.1,93,28,1.86,BR,2021-02-07 09:35:50
344,Ostrovnoy,68.0531,39.5131,8.08,89,100,12.93,RU,2021-02-07 09:31:29
345,Thompson,55.7435,-97.8558,-34.6,67,20,12.66,CA,2021-02-07 09:31:32
346,Turka,49.1541,23.0297,28.0,86,100,8.01,UA,2021-02-07 09:35:50
347,Ifakara,-8.1333,36.6833,83.55,69,97,3.02,TZ,2021-02-07 09:34:19
348,Ampanihy,-24.7,44.75,94.32,45,36,1.21,MG,2021-02-07 09:35:50
349,Los Llanos De Aridane,28.6585,-17.9182,60.8,67,20,5.75,ES,2021-02-07 09:31:27
350,Kargil,34.5667,76.1,16.39,74,0,0.29,IN,2021-02-07 09:35:50
351,Herat,34.5,62.0,69.8,18,0,2.3,AF,2021-02-07 09:34:07
352,Matale,7.4721,80.6234,82.49,62,92,6.76,LK,2021-02-07 09:35:51
353,Comodoro Rivadavia,-45.8667,-67.5,55.4,82,75,4.14,AR,2021-02-07 09:34:07
354,Fort Nelson,58.8053,-122.7002,-27.4,68,1,4.61,CA,2021-02-07 09:35:51
355,Harwich,51.9419,1.2844,32.0,90,100,24.0,GB,2021-02-07 09:35:51
356,Arlit,18.7369,7.3853,81.75,12,66,10.25,NE,2021-02-07 09:31:49
357,Ortigueira,-24.2083,-50.9494,59.05,96,28,2.51,BR,2021-02-07 09:35:51
358,Bulgan,48.8125,103.5347,11.14,89,4,2.64,MN,2021-02-07 09:34:13
359,Udachnyy,66.4167,112.4,-23.12,84,98,8.55,RU,2021-02-07 09:31:37
360,Pavino,59.1139,46.1414,-9.98,88,100,10.94,RU,2021-02-07 09:35:52
361,Farah,32.5,62.5,69.89,18,0,1.63,AF,2021-02-07 09:32:15
362,Uzhur,55.3036,89.8339,20.7,96,37,6.46,RU,2021-02-07 09:35:53
363,Tupik,54.4253,119.9327,-14.91,84,20,1.99,RU,2021-02-07 09:35:53
364,Kihurio,-4.4667,38.0667,85.62,55,60,8.12,TZ,2021-02-07 09:35:53
365,Newport,51.5877,-2.9984,39.0,82,93,23.31,GB,2021-02-07 09:34:16
366,Coolum Beach,-26.5333,153.1,79.0,94,99,5.93,AU,2021-02-07 09:30:09
367,Burgeo,47.6167,-57.6152,29.7,86,82,38.9,CA,2021-02-07 09:35:53
368,Sao Joao Da Barra,-21.6403,-41.0511,69.8,100,90,4.61,BR,2021-02-07 09:35:53
369,Miquelon,47.0975,-56.3814,33.19,84,99,44.98,PM,2021-02-07 09:35:53
370,Port Lincoln,-34.7333,135.8667,62.04,74,4,14.47,AU,2021-02-07 09:32:28
371,Krasnoselkup,65.7,82.4667,-3.32,92,100,17.36,RU,2021-02-07 09:31:45
372,Tindivanam,12.25,79.65,86.0,36,12,16.17,IN,2021-02-07 09:34:22
373,Ndele,8.4109,20.6473,86.77,13,9,9.13,CF,2021-02-07 09:35:54
374,Cesky Dub,50.6605,14.9962,25.0,98,100,3.62,CZ,2021-02-07 09:35:55
375,Ngaoundere,7.3167,13.5833,85.78,14,99,8.57,CM,2021-02-07 09:35:55
376,La Ronge,55.1001,-105.2842,-38.2,67,0,4.61,CA,2021-02-07 09:32:10
377,Chililabombwe,-12.3648,27.8229,72.75,88,90,9.6,ZM,2021-02-07 09:35:55
378,Adeje,28.1227,-16.726,64.0,63,20,6.91,ES,2021-02-07 09:35:55
379,Wolgast,54.05,13.7667,23.0,62,0,14.97,DE,2021-02-07 09:35:55
380,Mirpur Khas,25.5251,69.0159,86.4,12,0,5.28,PK,2021-02-07 09:34:29
381,Tigil,57.8,158.6667,31.33,93,79,25.46,RU,2021-02-07 09:32:14
382,Rio Gallegos,-51.6226,-69.2181,49.3,60,6,5.91,AR,2021-02-07 09:34:07
383,Kenai,60.5544,-151.2583,12.0,92,90,9.22,US,2021-02-07 09:31:56
384,Alekseyevsk,57.8406,108.3492,17.47,95,100,13.85,RU,2021-02-07 09:35:56
385,Portland,45.5234,-122.6762,44.6,87,90,5.75,US,2021-02-07 09:31:47
386,Kununurra,-15.7667,128.7333,86.0,84,75,5.75,AU,2021-02-07 09:32:43
387,Camapua,-19.5314,-54.0439,64.62,82,0,3.65,BR,2021-02-07 09:35:57
388,Beauceville,46.2179,-70.7787,6.8,78,0,2.3,CA,2021-02-07 09:35:57
389,Ola,59.5833,151.2833,13.44,89,100,23.49,RU,2021-02-07 09:32:08
390,Chilca,-12.5211,-76.7372,73.0,78,75,4.61,PE,2021-02-07 09:35:58
391,Teguldet,57.3064,88.1667,35.38,86,21,9.62,RU,2021-02-07 09:35:58
392,Pampa,35.5362,-100.9599,28.4,93,90,12.66,US,2021-02-07 09:35:06
393,Ilulissat,69.2167,-51.1,28.4,40,0,27.63,GL,2021-02-07 09:35:58
394,Torbay,47.6666,-52.7314,32.0,69,90,31.07,CA,2021-02-07 09:32:38
395,Khasan,42.4308,130.6434,15.48,87,9,8.08,RU,2021-02-07 09:35:59
396,Kotido,2.9806,34.1331,88.16,14,6,13.78,UG,2021-02-07 09:34:16
397,Souillac,-20.5167,57.5167,87.8,62,40,14.97,MU,2021-02-07 09:31:32
398,Linhares,-19.3911,-40.0722,74.28,92,99,1.5,BR,2021-02-07 09:35:59
399,Krasne,49.9145,24.6134,17.6,93,75,15.66,UA,2021-02-07 09:35:59
400,Cafarnaum,-11.6936,-41.4683,70.95,84,95,1.36,BR,2021-02-07 09:36:00
401,Nipawin,53.3668,-104.0009,-27.4,68,1,10.36,CA,2021-02-07 09:36:00
402,Atar,20.5169,-13.0499,59.0,23,0,17.27,MR,2021-02-07 09:31:47
403,Uni,57.7535,51.4923,-3.96,89,100,12.3,RU,2021-02-07 09:36:00
404,Mitu,1.1983,-70.1733,71.13,96,100,1.14,CO,2021-02-07 09:36:00
405,Mordovo,52.0834,40.77,0.28,90,23,12.8,RU,2021-02-07 09:36:00
406,Pacific Grove,36.6177,-121.9166,44.6,81,20,5.48,US,2021-02-07 09:36:01
407,Sakiai,54.9547,23.0358,3.2,78,20,3.44,LT,2021-02-07 09:36:01
408,Rumuruti,0.267,36.5389,74.01,44,94,4.47,KE,2021-02-07 09:34:12
409,Vila Velha,-20.3297,-40.2925,71.6,88,90,5.75,BR,2021-02-07 09:31:57
410,Poso,-1.3959,120.7524,81.66,72,100,0.58,ID,2021-02-07 09:36:02
411,Basoko,1.2391,23.616,90.97,25,41,3.96,CD,2021-02-07 09:36:02
412,Castle Rock,39.3722,-104.8561,34.0,56,0,1.99,US,2021-02-07 09:36:02
413,Touros,-5.1989,-35.4608,75.2,88,20,3.44,BR,2021-02-07 09:31:44
414,Tateyama,34.9833,139.8667,55.0,82,40,5.75,JP,2021-02-07 09:34:11
415,Ust-Maya,60.4167,134.5333,-30.8,82,11,2.75,RU,2021-02-07 09:36:02
416,Promyshlennaya,54.9159,85.6385,33.8,86,40,15.66,RU,2021-02-07 09:36:03
417,Yar-Sale,66.8333,70.8333,-13.41,89,100,24.99,RU,2021-02-07 09:32:15
418,Binghamton,42.0987,-75.918,19.4,45,1,6.91,US,2021-02-07 09:36:03
419,Christchurch,-43.5333,172.6333,62.01,88,20,14.97,NZ,2021-02-07 09:33:38
420,Meulaboh,4.1363,96.1285,85.03,67,85,6.02,ID,2021-02-07 09:35:24
421,Araouane,18.9048,-3.5265,67.75,26,93,19.35,ML,2021-02-07 09:36:03
422,Walvis Bay,-22.9575,14.5053,68.0,68,31,9.22,NA,2021-02-07 09:24:51
423,Solsona,41.994,1.5171,41.0,92,100,3.0,ES,2021-02-07 09:36:03
424,Broken Hill,-31.95,141.4333,78.8,31,0,14.97,AU,2021-02-07 09:31:43
425,Ranavav,21.6842,69.7408,84.2,21,0,13.8,IN,2021-02-07 09:36:04
426,Tezu,27.9167,96.1667,77.79,20,0,3.67,IN,2021-02-07 09:36:04
427,Yarada,17.65,83.2667,82.4,39,83,12.66,IN,2021-02-07 09:36:04
428,Miraflores,19.2167,-98.8083,55.4,47,1,2.48,MX,2021-02-07 09:36:04
429,Nabire,-3.3667,135.4833,79.41,80,100,1.88,ID,2021-02-07 09:35:24
430,Hope,33.6671,-93.5916,42.01,69,80,1.99,US,2021-02-07 09:36:04
431,Esmeraldas,-19.7625,-44.3139,68.0,94,75,5.75,BR,2021-02-07 09:34:10
432,Basco,20.4487,121.9702,74.19,87,100,24.11,PH,2021-02-07 09:32:07
433,Chanute,37.6792,-95.4572,17.6,79,90,10.36,US,2021-02-07 09:36:05
434,Chopovychi,50.8332,28.9533,12.9,85,80,5.91,UA,2021-02-07 09:36:05
435,Stillwater,36.1156,-97.0584,27.0,74,90,4.61,US,2021-02-07 09:35:04
436,Sarai Sidhu,30.5949,71.9698,73.4,38,0,4.61,PK,2021-02-07 09:34:28
437,Odweyne,9.4092,45.064,81.7,28,20,4.68,SO,2021-02-07 09:36:06
438,Ballina,-28.8667,153.5667,78.8,78,90,5.75,AU,2021-02-07 09:36:06
439,Itaituba,-4.2761,-55.9836,73.06,98,99,2.3,BR,2021-02-07 09:36:06
440,Tabou,4.423,-7.3528,83.48,74,98,4.5,CI,2021-02-07 09:36:06
441,Maniitsoq,65.4167,-52.9,31.08,79,0,26.19,GL,2021-02-07 09:36:06
442,Mokrousovo,55.8103,66.7653,8.65,93,100,23.17,RU,2021-02-07 09:36:07
443,Katherine,-14.4667,132.2667,73.4,100,75,5.75,AU,2021-02-07 09:36:07
444,Shubarshi,48.5872,57.1869,21.02,92,62,13.15,KZ,2021-02-07 09:36:07
445,Constitucion,-35.3333,-72.4167,55.62,91,20,5.23,CL,2021-02-07 09:31:38
446,Bend,44.0582,-121.3153,37.4,60,1,11.5,US,2021-02-07 09:34:17
447,Bagdarin,54.4333,113.6,-5.51,85,95,1.19,RU,2021-02-07 09:36:07
448,Vanavara,60.34,102.2797,20.21,97,100,7.99,RU,2021-02-07 09:36:07
449,Imbituba,-28.24,-48.6703,66.2,82,0,5.75,BR,2021-02-07 09:34:48
450,Imeni Stepana Razina,54.8932,44.2963,-2.16,89,100,14.34,RU,2021-02-07 09:36:08
451,Rajura,19.7833,79.3667,88.0,14,0,6.89,IN,2021-02-07 09:36:08
452,Goroka,-6.0834,145.3873,63.82,88,100,1.83,PG,2021-02-07 09:36:08
453,Keskin,39.6731,33.6136,55.0,48,70,1.01,TR,2021-02-07 09:34:52
454,Tricase,39.9304,18.3553,61.0,88,75,14.97,IT,2021-02-07 09:36:08
455,Lakes Entrance,-37.8811,147.981,64.0,65,10,12.82,AU,2021-02-07 09:36:08
456,Istok,42.7808,20.4875,50.0,76,75,1.72,XK,2021-02-07 09:36:08
457,Kahului,20.8947,-156.47,64.99,77,20,4.88,US,2021-02-07 09:31:46
458,Shenjiamen,29.9576,122.298,53.62,66,52,6.02,CN,2021-02-07 09:34:53
459,Norton,-17.8833,30.7,79.0,52,97,3.0,ZW,2021-02-07 09:36:09
460,Tilichiki,60.4667,166.1,13.42,89,100,14.79,RU,2021-02-07 09:36:09
461,Pyay,18.8167,95.2167,91.51,26,73,8.03,MM,2021-02-07 09:36:09
462,San Cristobal,7.7669,-72.225,66.6,84,95,2.77,VE,2021-02-07 09:31:53
463,Namatanai,-3.6667,152.4333,81.54,78,38,5.82,PG,2021-02-07 09:36:09
464,Carauari,-4.8828,-66.8958,73.6,98,100,2.24,BR,2021-02-07 09:36:09
465,Auka,14.9333,-83.8333,70.45,97,22,2.86,HN,2021-02-07 09:36:09
466,Bandipur,27.9333,84.4167,69.4,27,0,7.25,NP,2021-02-07 09:36:10
467,Haikou,20.0458,110.3417,75.2,69,0,13.42,CN,2021-02-07 09:34:08
468,Umm Lajj,25.0213,37.2685,77.74,26,0,12.1,SA,2021-02-07 09:31:55
469,Saint-Joseph,-21.3667,55.6167,87.8,62,0,10.36,RE,2021-02-07 09:31:54
470,Kibuye,-2.0597,29.3482,73.4,68,75,4.61,RW,2021-02-07 09:34:15
471,Borkenes,68.774,16.1739,30.99,96,100,15.99,NO,2021-02-07 09:36:10
472,Dawei,14.0833,98.2,84.45,54,0,8.55,MM,2021-02-07 09:31:44
473,Tevaitoa,-16.7833,-151.5,82.11,73,32,12.48,PF,2021-02-07 09:36:10
474,Kathu,7.9178,98.3332,87.8,66,20,5.75,TH,2021-02-07 09:31:29
475,Bam,29.106,58.357,76.55,13,0,3.36,IR,2021-02-07 09:24:49
476,Whitehaven,54.549,-3.5841,33.01,71,4,4.0,GB,2021-02-07 09:36:11
477,Campeche,19.0,-90.5,65.17,95,18,1.86,MX,2021-02-07 09:36:11
478,Ojinaga,29.5667,-104.4167,48.2,20,1,10.36,MX,2021-02-07 09:31:56
479,Saint Anthony,45.0205,-93.218,-11.2,70,1,5.75,US,2021-02-07 09:31:26
480,Gizo,-8.103,156.8419,83.97,71,99,3.65,SB,2021-02-07 09:36:12
481,Bilibino,68.0546,166.4372,-4.38,71,0,3.71,RU,2021-02-07 09:32:40
482,Kampot,10.6167,104.1833,84.2,65,20,8.05,KH,2021-02-07 09:36:12
483,Kuusamo,65.9667,29.1833,19.4,79,40,12.66,FI,2021-02-07 09:36:12
484,Mbaiki,3.8678,17.9892,94.64,12,3,6.46,CF,2021-02-07 09:35:27
485,Luanda,-8.8368,13.2343,82.4,74,75,3.44,AO,2021-02-07 09:34:30
486,Jonkoping,57.7814,14.1562,19.4,93,90,8.05,SE,2021-02-07 09:32:38
487,Pevek,69.7008,170.3133,-10.21,86,0,2.13,RU,2021-02-07 09:32:02
488,Atlantic City,39.3643,-74.4229,42.01,93,90,4.61,US,2021-02-07 09:36:13
489,Montelimar,44.5584,4.7509,46.99,85,100,6.04,FR,2021-02-07 09:36:13
490,Mpanda,-6.3655,31.0409,79.11,70,82,4.43,TZ,2021-02-07 09:36:13
491,Drumnadrochit,57.3344,-4.4799,32.0,74,90,9.22,GB,2021-02-07 09:36:13
492,Nowy Tomysl,52.3195,16.1284,21.0,58,90,14.97,PL,2021-02-07 09:34:39
493,Svetlyy,54.675,20.1347,12.0,85,40,2.24,RU,2021-02-07 09:35:21
494,Zile,40.3031,35.8864,55.4,41,40,3.44,TR,2021-02-07 09:34:52
495,Muli,2.9167,73.5667,81.97,74,50,16.62,MV,2021-02-07 09:36:14
496,Vung Tau,10.346,107.0843,78.84,77,30,15.64,VN,2021-02-07 09:34:59
497,Srednekolymsk,67.45,153.6833,-9.08,85,100,5.3,RU,2021-02-07 09:31:25
498,Klaksvik,62.2266,-6.589,35.6,64,75,18.41,FO,2021-02-07 09:31:27
499,Nouadhibou,20.931,-17.0347,60.8,72,0,18.41,MR,2021-02-07 09:35:14
500,Misratah,32.3754,15.0925,70.9,27,100,14.12,LY,2021-02-07 09:36:14
501,San Felipe,10.3399,-68.7425,68.97,91,100,3.27,VE,2021-02-07 09:36:14
502,Mongu,-15.2484,23.1274,82.47,63,95,7.7,ZM,2021-02-07 09:32:41
503,Staryy Nadym,65.6118,72.6842,-4.61,92,100,22.95,RU,2021-02-07 09:36:15
504,Portree,57.4129,-6.1942,32.0,79,45,3.0,GB,2021-02-07 09:36:15
505,Manjacaze,-24.7117,33.8828,90.1,45,88,5.46,MZ,2021-02-07 09:35:27
506,Hualmay,-11.0964,-77.6139,70.18,77,100,2.15,PE,2021-02-07 09:31:51
507,Grindavik,63.8424,-22.4338,33.8,60,20,16.11,IS,2021-02-07 09:31:55
508,Kalakamati,-20.5929,27.3121,80.6,69,75,8.05,BW,2021-02-07 09:36:15
509,Orsta,62.2029,6.1272,21.99,68,0,7.0,NO,2021-02-07 09:36:15
510,Whitehorse,60.7161,-135.0538,-11.2,77,75,4.61,CA,2021-02-07 09:31:46
511,Ossora,59.2353,163.0719,24.94,96,100,39.5,RU,2021-02-07 09:36:16
512,Port Blair,11.6667,92.75,82.58,67,26,10.71,IN,2021-02-07 09:31:42
513,Behbahan,30.5959,50.2417,68.0,60,75,13.8,IR,2021-02-07 09:34:28
514,Vanimo,-2.6741,141.3028,78.69,84,100,4.32,PG,2021-02-07 09:32:39
515,Gornyy,55.1153,83.9059,33.12,95,99,20.98,RU,2021-02-07 09:36:16
516,Manthani,18.65,79.6667,89.22,18,39,7.34,IN,2021-02-07 09:32:20
517,Fourmies,50.0153,4.0478,34.0,98,100,1.01,FR,2021-02-07 09:36:16
518,Miracema Do Tocantins,-9.5618,-48.3967,72.36,92,100,3.27,BR,2021-02-07 09:36:17
519,Bouca,6.5105,18.2733,93.87,11,32,6.8,CF,2021-02-07 09:36:17
520,Itarema,-2.9248,-39.9167,77.36,85,14,8.46,BR,2021-02-07 09:32:19
521,Darab,28.7519,54.5444,64.69,33,39,13.29,IR,2021-02-07 09:36:18
522,Lure,47.75,6.5,42.8,93,75,6.91,FR,2021-02-07 09:36:18
523,Chicama,-7.8447,-79.1469,71.76,68,97,3.13,PE,2021-02-07 09:32:09
524,Muleba,-1.8397,31.6544,78.8,65,75,5.75,TZ,2021-02-07 09:36:18
525,Leshukonskoye,64.8989,45.7622,-13.14,86,98,10.96,RU,2021-02-07 09:36:18
526,Brae,60.3964,-1.353,33.8,55,75,14.97,GB,2021-02-07 09:36:18
527,Maningrida,-12.0667,134.2667,79.99,81,100,11.12,AU,2021-02-07 09:36:18
528,Oni,42.5794,43.4425,41.16,75,100,3.83,GE,2021-02-07 09:36:19
529,Roma,43.2128,-75.4557,10.4,67,1,10.36,US,2021-02-07 09:34:05
530,Taywarah,33.35,64.4167,48.83,38,0,7.9,AF,2021-02-07 09:36:19
531,Ajdabiya,30.7554,20.2263,69.31,31,100,16.02,LY,2021-02-07 09:34:50
532,Hazorasp,41.3194,61.0742,53.6,66,0,11.5,UZ,2021-02-07 09:34:20
533,Moroto,2.5345,34.6666,85.05,19,1,11.43,UG,2021-02-07 09:36:20
534,Aasiaat,68.7098,-52.8699,20.64,87,0,19.33,GL,2021-02-07 09:36:20
535,Taoudenni,22.6783,-3.9836,65.3,27,7,13.69,ML,2021-02-07 09:36:20
536,Bayangol,50.6977,103.4656,5.43,91,4,2.08,RU,2021-02-07 09:36:20
537,Seoul,37.5683,126.9778,41.0,25,0,13.8,KR,2021-02-07 09:26:49
538,Cockburn Town,21.4612,-71.1419,77.43,79,82,21.5,TC,2021-02-07 09:36:20
539,Luganville,-15.5333,167.1667,79.47,72,51,6.82,VU,2021-02-07 09:36:20
540,Senneterre,48.3835,-77.2328,6.8,92,90,8.05,CA,2021-02-07 09:36:21
541,Kargopol,61.5071,38.9456,-6.25,88,19,8.68,RU,2021-02-07 09:36:21
542,Ribeira Brava,32.65,-17.0667,59.0,81,85,4.0,PT,2021-02-07 09:31:37
543,Ugoofaaru,5.6667,73.0,81.95,73,72,11.1,MV,2021-02-07 09:36:22
544,Malumfashi,11.7853,7.6218,79.61,15,16,11.56,NG,2021-02-07 09:36:22
545,Ewa Beach,21.3156,-158.0072,66.2,68,1,5.75,US,2021-02-07 09:36:22
546,Kearney,40.6995,-99.0815,5.0,92,90,11.5,US,2021-02-07 09:35:03
547,Huarmey,-10.0681,-78.1522,70.93,73,100,3.13,PE,2021-02-07 09:32:20
548,Saint George,37.1041,-113.5841,37.4,44,1,2.48,US,2021-02-07 09:32:03
549,Deniliquin,-35.5333,144.9667,66.0,53,38,3.0,AU,2021-02-07 09:34:37
550,Dalianwan,39.0286,121.695,28.4,37,0,11.18,CN,2021-02-07 09:34:52
551,Marystown,47.1666,-55.1483,32.0,88,84,32.93,CA,2021-02-07 09:36:23
552,Leh,34.1667,77.5833,23.18,69,0,1.21,IN,2021-02-07 09:31:41
553,Dauphin,51.1494,-100.0502,-29.2,62,1,10.36,CA,2021-02-07 09:36:23
554,Cedral,23.8,-100.7333,53.49,85,28,10.8,MX,2021-02-07 09:36:23
555,Powell River,49.8496,-124.5361,39.2,65,1,11.5,CA,2021-02-07 09:36:24
556,Cayenne,4.9333,-52.3333,77.0,100,75,1.14,GF,2021-02-07 09:31:42
557,Galesong,-5.3166,119.3661,86.0,70,20,6.91,ID,2021-02-07 09:31:36
558,Ubinskoye,55.3068,79.6802,21.36,94,83,23.24,RU,2021-02-07 09:36:24
559,Glenwood Springs,39.5505,-107.3248,28.0,67,90,6.89,US,2021-02-07 09:36:25
560,Hobyo,5.3505,48.5268,83.08,59,6,19.53,SO,2021-02-07 09:36:25
561,Teguise,29.0605,-13.564,60.8,72,75,4.61,ES,2021-02-07 09:36:25
562,Mehamn,71.0357,27.8492,23.65,93,100,20.13,NO,2021-02-07 09:32:22
563,Bontang,0.1333,117.5,82.18,76,100,6.11,ID,2021-02-07 09:36:25
564,Quipapa,-8.8278,-36.0117,73.27,79,91,6.96,BR,2021-02-07 09:36:25
565,Kodinsk,58.6881,99.1844,27.75,97,98,5.17,RU,2021-02-07 09:35:18
566,Luderitz,-26.6481,15.1594,81.79,34,0,27.31,NA,2021-02-07 09:32:16
567,Codrington,-38.2667,141.9667,55.96,74,27,11.41,AU,2021-02-07 09:32:29
568,Makushino,55.2103,67.2442,7.59,91,100,24.83,RU,2021-02-07 09:36:26
569,Vaini,-21.2,-175.2,78.8,94,75,10.36,TO,
570,Nishihara,26.1842,127.7558,66.2,52,20,8.05,JP,
571,Rikitea,-23.1203,-134.9692,77.11,74,49,11.3,PF,
572,Ushuaia,-54.8,-68.3,44.6,76,40,9.22,AR,
573,Hermanus,-34.4187,19.2345,69.01,81,99,3.0,ZA,
574,Mount Isa,-20.7333,139.5,82.4,74,100,9.22,AU,
575,Antalaha,-14.9003,50.2788,84.94,63,47,7.4,MG,
576,Honiara,-9.4333,159.95,78.78,82,100,6.44,SB,
577,West Wendover,40.7391,-114.0733,48.2,20,1,12.66,US,
578,Yantal,56.8471,105.2542,22.15,95,100,10.11,RU,
579,Punta Arenas,-53.15,-70.9167,42.8,87,0,5.75,CL,
580,Kapaa,22.0752,-159.319,62.6,77,90,8.05,US,
581,Taksimo,56.3444,114.8794,-8.07,85,100,1.23,RU,
582,Mlonggo,-6.5333,110.7,80.6,89,75,9.22,ID,
583,Asau,46.4333,26.4,28.99,74,98,4.52,RO,
584,Methoni,36.8197,21.7049,62.6,67,20,11.48,GR,
585,Clyde River,70.4692,-68.5914,-4.0,92,90,2.3,CA,
586,Cape Town,-33.9258,18.4232,73.4,53,20,21.85,ZA,
587,Goderich,43.7501,-81.7165,19.4,79,100,13.8,CA,
588,Fare,-16.7,-151.0167,81.77,76,15,12.88,PF,
589,Busselton,-33.65,115.3333,62.01,93,100,3.0,AU,
590,Leningradskiy,69.3833,178.4167,-11.61,72,11,4.72,RU,
591,Bluff,-46.6,168.3333,57.06,89,88,6.6,NZ,
592,Mataura,-46.1927,168.8643,56.1,92,58,2.59,NZ,
593,Puerto Ayora,-0.7393,-90.3518,75.99,96,43,1.99,EC,
594,Albany,42.6001,-73.9662,19.0,55,100,0.87,US,
595,Bethel,41.3712,-73.414,28.0,79,1,3.42,US,
596,Brooks,50.5834,-111.8851,-13.0,84,100,5.75,CA,
597,Teya,60.3778,92.6267,32.38,95,100,7.92,RU,
598,Araucaria,-25.5931,-49.4103,61.0,100,75,4.61,BR,
599,Dubrovka,53.6907,33.5071,6.8,72,20,11.18,RU,
600,Enumclaw,47.2043,-121.9915,44.01,80,100,11.01,US,
601,Hobart,-42.8794,147.3294,59.0,47,20,16.11,AU,
602,Oriximina,-1.7656,-55.8661,74.86,91,100,1.97,BR,
603,Carnarvon,-24.8667,113.6333,86.0,100,40,11.5,AU,
604,Radchenko,56.6803,36.3718,8.98,93,98,11.14,RU,
605,Lenauheim,45.8719,20.7994,54.0,100,0,9.22,RO,
606,Alofi,-19.0595,-169.9187,78.8,94,100,4.61,NU,
607,Victoria,22.2855,114.1577,78.01,36,0,10.36,HK,
608,Henties Bay,-22.116,14.2845,66.99,87,90,5.99,NA,
609,Jamestown,42.097,-79.2353,17.6,53,75,4.61,US,
610,Jetalsar,21.7,70.5833,86.0,22,0,7.36,IN,
611,Sokolo,14.7328,-6.1219,75.45,21,100,19.51,ML,
612,San Patricio,28.017,-97.5169,55.4,71,1,4.61,US,
613,East London,-33.0153,27.9116,77.0,65,20,11.5,ZA,
614,Shush,32.1942,48.2436,64.67,66,100,9.69,IR,
615,Maldonado,-34.6667,-54.9167,63.0,100,20,2.3,UY,
616,Bambous Virieux,-20.3428,57.7575,87.8,62,40,14.97,MU,
617,Imeni Poliny Osipenko,52.4201,136.4853,3.99,92,100,12.48,RU,
618,Cozumel,20.5083,-86.9458,78.01,92,62,10.98,MX,
619,Arraial Do Cabo,-22.9661,-42.0278,73.4,83,75,6.91,BR,
620,Lebu,-37.6167,-73.65,56.79,93,75,3.65,CL,
621,Flin Flon,54.7682,-101.865,-37.26,79,19,8.14,CA,
622,Svetlaya,46.5389,138.3297,4.98,86,45,11.01,RU,
623,Paragould,36.0584,-90.4973,30.2,80,90,9.22,US,
624,Nanortalik,60.1432,-45.2371,32.23,89,67,4.09,GL,
625,Nhulunbuy,-12.2333,136.7667,78.8,89,95,9.22,AU,
626,Parga,39.2831,20.3964,60.8,82,20,9.22,GR,
627,Komsomolskiy,40.4272,71.7189,53.6,37,83,6.91,UZ,
628,Fairfield,41.2668,-73.3162,32.0,69,1,5.75,US,
629,Lorengau,-2.0226,147.2712,82.33,80,81,6.93,PG,
630,Hilo,19.7297,-155.09,68.0,73,75,4.61,US,
631,Mar Del Plata,-38.0023,-57.5575,66.0,82,75,5.75,AR,
632,Neftcala,39.3742,49.2472,60.71,40,0,12.15,AZ,
633,Dikson,73.5069,80.5464,-27.11,87,91,9.6,RU,
634,Yellowknife,62.456,-114.3525,-45.99,73,1,4.61,CA,
635,Mount Gambier,-37.8333,140.7667,60.8,63,90,16.11,AU,
636,Port Hedland,-20.3167,118.5667,87.8,58,0,17.27,AU,
637,Severo-Kurilsk,50.6789,156.125,23.41,93,100,27.07,RU,
638,Mogadishu,2.0371,45.3438,84.2,58,40,20.71,SO,
639,Tuktoyaktuk,69.4541,-133.0374,-15.59,87,100,16.69,CA,
640,Belmonte,-15.8631,-38.8828,77.0,88,75,5.75,BR,
641,Lavrentiya,65.5833,-171.0,-12.46,78,0,4.68,RU,
642,Hun,29.1268,15.9477,77.54,16,100,17.27,LY,
643,Quatre Cocos,-20.2078,57.7625,87.8,62,40,14.97,MU,
644,Ribeira Grande,38.5167,-28.7,60.8,88,20,12.66,PT,
645,Nara,34.6851,135.8049,53.6,54,40,11.5,JP,
646,Sao Filipe,14.8961,-24.4956,69.19,71,19,14.74,CV,
647,Simpang,-1.2667,104.0833,83.25,68,100,7.18,ID,
648,Barrow,71.2906,-156.7887,-7.6,77,75,12.66,US,
649,Husavik,66.0449,-17.3389,33.8,75,75,3.44,IS,
650,Georgetown,5.4112,100.3354,89.6,58,20,10.36,MY,
651,Atuona,-9.8,-139.0333,79.32,76,70,21.85,PF,
652,Eshowe,-28.8865,31.4699,82.36,66,62,11.77,ZA,
653,Saskylakh,71.9167,114.0833,-38.94,78,25,11.12,RU,
654,Avarua,-21.2078,-159.775,78.8,83,6,3.44,CK,
655,Tabas,33.5959,56.9244,69.8,14,0,2.3,IR,
656,Corinto,37.9407,22.9573,63.0,49,75,1.99,GR,
657,Nikolskoye,59.7035,30.7861,14.0,85,75,15.66,RU,
658,Khatanga,71.9667,102.5,-31.59,79,0,8.55,RU,
659,Vao,-22.6667,167.4833,77.95,87,0,11.18,NC,
660,Marawi,7.9986,124.2928,78.01,91,100,1.01,PH,
661,Port Elizabeth,-33.918,25.5701,78.8,61,40,24.16,ZA,
662,Nehe,48.4833,124.8333,-4.81,88,0,5.32,CN,
663,Baft,29.234,56.6057,53.8,34,56,9.1,IR,
664,Narsaq,60.9167,-46.05,41.0,30,75,44.87,GL,
665,Patti,31.2808,74.8572,71.6,52,0,6.91,IN,
666,Ust-Kuyga,70.0167,135.6,-29.31,82,32,4.76,RU,
667,Haines Junction,60.7522,-137.5108,-18.4,69,95,1.14,CA,
668,Perdoes,-21.0908,-45.0914,62.08,89,100,5.46,BR,
669,Ponta Do Sol,32.6667,-17.1,59.0,63,88,1.01,PT,
670,Okha,53.5739,142.9478,7.29,94,100,20.07,RU,
671,Muros,42.7762,-9.0603,44.01,94,100,1.01,ES,
672,Qostanay,53.1667,63.5833,10.4,67,0,35.79,KZ,
673,Isangel,-19.55,169.2667,79.43,76,75,4.41,VU,
674,Tucuman,-26.8241,-65.2226,66.2,88,0,5.75,AR,
675,Ambilobe,-13.2,49.05,87.3,65,99,5.61,MG,
676,Bredasdorp,-34.5322,20.0403,69.8,64,100,8.05,ZA,
677,Huangzhou,30.45,114.8,50.0,100,90,4.47,CN,
678,Aklavik,68.2191,-135.0107,-13.0,77,100,5.75,CA,
679,Berlevag,70.8578,29.0864,24.15,93,100,21.16,NO,
680,Athabasca,54.7169,-113.2854,-40.0,66,0,2.3,CA,
681,Port Alfred,-33.5906,26.891,75.99,76,41,5.01,ZA,
682,Terrak,65.087,12.3715,24.8,68,0,4.61,NO,
683,Olawa,50.9466,17.2926,21.99,81,100,5.01,PL,
684,Yeppoon,-23.1333,150.7333,87.8,58,95,12.66,AU,
685,Monster,52.0258,4.175,26.01,93,75,25.32,NL,
686,Ossipee,43.6854,-71.1167,15.01,76,92,2.3,US,
687,Kodiak,57.79,-152.4072,23.0,68,1,6.91,US,
688,Bonavista,48.6499,-53.1147,32.0,74,0,11.5,CA,
689,Salamiyah,35.0113,37.0532,64.56,47,0,11.72,SY,
690,Ayan,56.45,138.1667,-3.41,80,100,19.71,RU,
691,Beringovskiy,63.05,179.3167,-6.97,91,99,12.91,RU,
692,Starokozache,46.3372,29.9853,28.0,86,90,11.18,UA,
693,Nelson Bay,-32.7167,152.15,73.4,83,0,10.36,AU,
694,Inhambane,-23.865,35.3833,89.6,58,40,4.61,MZ,
695,New Norfolk,-42.7826,147.0587,57.99,54,4,1.01,AU,
696,Nome,64.5011,-165.4064,10.4,85,90,3.49,US,
697,Hofn,64.2539,-15.2082,34.14,90,100,16.33,IS,
698,Bengkulu,-3.8004,102.2655,85.26,68,100,12.3,ID,
699,Mahebourg,-20.4081,57.7,87.8,62,40,14.97,MU,
700,Wachtersbach,50.2551,9.2956,37.0,93,100,10.94,DE,
701,Grand Gaube,-20.0064,57.6608,84.99,72,44,10.0,MU,
702,Chokurdakh,70.6333,147.9167,-27.78,84,0,4.74,RU,
703,Pisco,-13.7,-76.2167,71.6,83,100,0.87,PE,
704,Akyab,20.15,92.9,81.27,41,0,21.21,MM,
705,Bonnyville,54.2668,-110.735,-32.8,75,1,2.51,CA,
706,Bathsheba,13.2167,-59.5167,78.8,69,75,20.71,BB,
707,Kloulklubed,7.0419,134.2556,80.6,89,90,6.91,PW,
708,Eyl,7.9803,49.8164,85.28,47,35,19.13,SO,
709,Bakchar,57.0186,82.0711,32.72,94,95,17.83,RU,
710,Sao Jose Da Coroa Grande,-8.8978,-35.1478,80.13,76,43,8.86,BR,
711,Tasiilaq,65.6145,-37.6368,32.0,55,20,17.27,GL,
712,Cabo San Lucas,22.8909,-109.9124,57.99,72,53,4.18,MX,
713,Valparaiso,-33.0393,-71.6273,60.8,88,90,3.44,CL,
714,Unguia,8.0434,-77.0945,75.61,89,100,1.66,CO,
715,Gambissara,13.2382,-14.3108,77.38,19,4,12.41,SN,
716,Xingyi,24.1877,102.817,50.16,92,100,2.3,CN,
717,Priladozhskiy,59.85,31.4833,14.0,48,100,10.83,RU,
718,Cidreira,-30.1811,-50.2056,67.19,79,0,10.89,BR,
719,Vardo,70.3705,31.1107,25.32,93,100,25.19,NO,
720,Ketchikan,55.3422,-131.6461,32.0,74,1,14.97,US,
721,Padang,-0.9492,100.3543,91.4,55,20,8.05,ID,
722,Olafsvik,64.8945,-23.7142,33.33,85,0,14.38,IS,
723,Vila Franca Do Campo,37.7167,-25.4333,60.01,94,75,24.16,PT,
724,Kampene,-3.6,26.6667,81.45,79,62,2.06,CD,
725,Saint-Pierre,-21.3393,55.4781,87.8,62,0,10.36,RE,
726,Kawalu,-7.3817,108.2082,75.85,88,96,1.48,ID,
727,Beaverlodge,55.2166,-119.4361,-41.8,66,75,5.75,CA,
728,Ulaangom,49.9811,92.0667,-1.28,91,95,0.74,MN,
729,Saint-Augustin,51.226,-58.6502,26.04,95,100,19.01,CA,
730,Coihaique,-45.5752,-72.0662,50.0,76,0,3.44,CL,
731,Qaanaaq,77.484,-69.3632,10.24,90,100,1.92,GL,
732,Gigmoto,13.7796,124.39,79.41,84,83,13.29,PH,
733,Katsuura,35.1333,140.3,53.6,82,40,5.75,JP,
734,Upernavik,72.7868,-56.1549,21.7,80,100,6.31,GL,
735,Norman Wells,65.282,-126.8329,-20.2,76,75,16.11,CA,
736,Acheng,45.5454,126.977,3.2,72,0,6.71,CN,
737,Talnakh,69.4865,88.3972,-27.83,71,0,2.89,RU,
738,Dingle,10.9995,122.6711,77.38,88,49,10.33,PH,
739,Ponta Delgada,37.7333,-25.6667,60.01,94,75,24.16,PT,
740,Butaritari,3.0707,172.7902,81.37,81,57,18.43,KI,
741,Kutum,14.2,24.6667,71.55,20,24,14.81,SD,
742,Hithadhoo,-0.6,73.0833,82.74,70,60,10.94,MV,
743,Tarifa,36.0139,-5.607,55.4,82,20,20.71,ES,
744,Reconquista,-29.15,-59.65,62.33,74,0,5.23,AR,
745,Manta,-0.95,-80.7333,77.0,88,90,4.61,EC,
746,Avera,33.194,-82.5271,39.2,94,90,4.61,US,
747,Dandong,40.1292,124.3947,20.75,84,0,15.48,CN,
748,Bambui,-20.0064,-45.9769,68.41,90,79,2.26,BR,
749,Goure,13.9835,10.2704,75.99,15,51,8.01,NE,
750,Xam Nua,20.4197,104.0439,71.94,63,69,3.4,LA,
751,Savannah Bight,16.45,-85.85,79.0,90,0,3.0,HN,
752,College,64.8569,-147.8028,-4.0,71,75,2.21,US,
753,Eregli,37.5133,34.0467,61.81,29,0,3.04,TR,
754,Akdepe,42.0551,59.3788,53.6,66,0,11.5,TM,
755,Kaitangata,-46.2817,169.8464,61.0,90,31,3.0,NZ,
756,Nemuro,43.3236,145.575,17.6,73,75,6.91,JP,
757,Selishche,56.8879,33.2691,9.82,94,100,10.02,RU,
758,Luzhou,28.8724,105.4405,65.66,39,83,3.98,CN,
759,Lompoc,34.6391,-120.4579,55.0,100,90,4.61,US,
760,Gohpur,26.8833,93.6333,80.6,41,20,3.44,IN,
761,Geraldton,-28.7667,114.6,73.4,73,75,19.57,AU,
762,Weligama,5.9667,80.4167,84.51,68,41,3.51,LK,
763,Salalah,17.0151,54.0924,78.8,53,75,11.5,OM,
764,Kamiiso,41.8167,140.65,24.8,58,40,19.57,JP,
765,Flinders,-34.5833,150.8552,72.0,76,33,1.01,AU,
766,Ilhabela,-23.7781,-45.3581,72.88,80,52,3.18,BR,
767,Kihei,20.785,-156.4656,64.99,77,20,5.19,US,
768,Bubaque,11.2833,-15.8333,74.91,49,25,18.81,GW,
769,Sitka,57.0531,-135.33,28.4,74,75,4.61,US,
770,Wakkanai,45.4094,141.6739,6.8,85,20,4.61,JP,
771,Kosa,59.9445,54.9977,-8.1,89,100,8.37,RU,
772,Yerbogachen,61.2767,108.0108,12.92,96,100,7.63,RU,
773,Bedesa,8.9,40.7833,67.66,54,88,4.07,ET,
774,Surt,31.2089,16.5887,72.72,26,100,15.99,LY,
775,Faanui,-16.4833,-151.75,82.04,73,23,11.83,PF,
776,Naze,28.3667,129.4833,60.8,67,20,4.61,JP,
777,Rio Grande,-32.035,-52.0986,66.0,97,4,6.02,BR,
778,Hami,42.8,93.45,42.91,53,0,4.38,CN,
779,Ust-Ilimsk,58.0006,102.6619,26.76,97,100,7.67,RU,
780,Provideniya,64.3833,-173.3,-4.22,79,0,13.29,RU,
781,Beloha,-25.1667,45.05,89.28,54,74,7.85,MG,
782,Hokitika,-42.7167,170.9667,58.77,85,0,2.06,NZ,
783,Petrolina,-9.3986,-40.5008,77.0,78,0,3.44,BR,
784,Shimorskoye,55.3244,42.0267,1.27,90,99,11.32,RU,
785,Serov,59.6033,60.5787,-8.95,91,100,5.77,RU,
786,Eastbourne,50.7687,0.2845,34.0,93,100,4.0,GB,
787,Awjilah,29.1081,21.2869,74.86,22,60,13.67,LY,
788,Milkovo,54.7167,158.6167,22.93,96,100,6.13,RU,
789,Broome,42.2506,-75.833,19.4,45,1,6.91,US,
790,China,25.7,-99.2333,58.1,37,0,3.04,MX,
791,Sambava,-14.2667,50.1667,85.03,64,72,8.32,MG,
792,Ancud,-41.8697,-73.8203,51.01,81,0,3.44,CL,
793,Anadyr,64.75,177.4833,-7.01,71,0,4.47,RU,
794,Fortuna,40.5982,-124.1573,46.99,100,90,4.34,US,
795,Mandalgovi,45.7625,106.2708,16.34,80,0,9.35,MN,
796,Esmeralda,21.8525,-78.1169,69.8,100,0,4.61,CU,
797,Hammerfest,70.6634,23.6821,24.8,86,75,20.71,NO,
798,Elesbao Veloso,-6.2019,-42.1403,75.11,79,77,1.52,BR,
799,Sistranda,63.7256,8.834,21.2,93,40,9.22,NO,
800,Glendive,47.1053,-104.7125,-9.4,70,90,16.11,US,
801,Rawson,-43.3002,-65.1023,57.16,64,100,11.81,AR,
802,Kavieng,-2.5744,150.7967,83.59,75,50,8.52,PG,
803,Brownsville,25.9018,-97.4975,55.4,94,90,3.44,US,
804,Casa Nova,-9.4167,-41.1333,77.0,78,0,3.44,BR,
805,Yulara,-25.2406,130.9889,96.8,15,0,12.66,AU,
806,Marzuq,14.4,46.4667,78.22,22,50,8.46,YE,
807,Cabatuan,10.8794,122.486,77.45,86,45,12.86,PH,
808,Klyuchi,52.2667,79.1667,27.09,93,34,18.61,RU,
809,Guerrero Negro,27.9769,-114.0611,56.44,71,1,2.57,MX,
810,Desbiens,48.4178,-71.9495,14.0,72,20,6.91,CA,
811,Westport,41.1415,-73.3579,33.01,69,1,5.75,US,
812,Kousseri,12.0769,15.0306,80.6,12,31,11.5,CM,
813,Tyup,42.7276,78.3648,36.66,79,93,3.47,KG,
814,Tiksi,71.6872,128.8694,-26.77,84,100,6.6,RU,
815,Eydhafushi,5.1033,73.0708,81.63,75,19,12.75,MV,
816,Emerald,-23.5333,148.1667,84.99,89,96,6.91,AU,
817,Mana,5.6592,-53.7767,76.08,89,99,10.69,GF,
818,Vytegra,61.0064,36.4481,-0.38,88,17,8.14,RU,
819,Airai,-8.9266,125.4092,63.82,100,98,1.36,TL,
820,Tongren,27.7172,109.1853,57.02,81,100,4.83,CN,
821,Sinnamary,5.3833,-52.95,77.05,87,98,13.51,GF,
822,Tuatapere,-46.1333,167.6833,55.65,87,79,3.0,NZ,
823,Sabla,12.7525,4.7077,85.93,13,51,15.41,NG,
824,Hasaki,35.7333,140.8333,54.0,47,20,4.61,JP,
825,Zapolyarnyy,69.4154,30.8136,23.0,86,40,16.11,RU,
826,Baykit,61.67,96.37,24.64,95,100,3.71,RU,
827,Te Anau,-45.4167,167.7167,56.79,74,81,4.25,NZ,
828,Esperance,-33.8667,121.9,66.2,72,90,17.27,AU,
829,Erzin,36.9559,36.2,66.2,68,20,12.66,TR,
830,Yendi,9.4427,-0.0099,91.26,43,87,5.68,GH,
831,Cadillac,44.2519,-85.4012,-0.4,85,40,4.61,US,
832,Zhangye,38.9342,100.4517,41.77,45,43,2.06,CN,
833,Fallon,39.4735,-118.7774,39.99,69,1,8.05,US,
834,Gushi,34.6425,109.5843,55.51,34,89,5.61,CN,
835,Ludvika,60.1496,15.1878,16.0,79,13,8.05,SE,
836,Saly,47.95,20.6667,32.94,90,100,8.97,HU,
837,Cao Bang,22.6667,106.25,78.93,47,19,5.64,VN,
838,Sungaipenuh,-2.0833,101.3833,74.89,71,96,3.89,ID,
839,Coruripe,-10.1256,-36.1756,79.41,77,94,11.81,BR,
840,Totness,5.8833,-56.3167,75.43,90,74,10.0,SR,
841,Noumea,-22.2763,166.4572,80.01,94,90,3.44,NC,
842,Saldanha,-33.0117,17.9442,77.0,50,39,17.27,ZA,
843,Lima,-12.0432,-77.0282,73.0,78,75,4.61,PE,
844,Namibe,-15.1961,12.1522,73.4,73,75,9.71,AO,
845,Sillod,20.3,75.65,82.4,26,2,2.3,IN,
846,Tazovskiy,67.4667,78.7,-18.45,86,100,16.84,RU,
847,Ujjain,23.1833,75.7667,71.6,17,0,4.61,IN,
848,Kruisfontein,-34.0033,24.7314,80.01,58,0,8.99,ZA,
849,Iqaluit,63.7506,-68.5145,24.8,54,1,14.97,CA,
850,Vallenar,-28.5708,-70.7581,55.6,83,0,1.43,CL,
851,Cotonou,6.3654,2.4183,84.2,84,40,3.44,BJ,
852,Marrakesh,31.6315,-8.0083,51.8,76,75,3.44,MA,
853,High Level,58.5169,-117.136,-40.0,67,1,3.44,CA,
854,Mehendiganj,22.8167,90.5333,77.77,34,29,9.86,BD,
855,Buchanan,5.8808,-10.0467,77.0,94,40,3.44,LR,
856,Cherskiy,68.75,161.3,-2.74,79,0,4.63,RU,
857,Coquimbo,-29.9533,-71.3436,55.4,88,20,2.3,CL,
858,Marakkanam,12.2,79.95,80.92,55,10,19.04,IN,
859,Zhigansk,66.7697,123.3711,-29.27,82,100,15.73,RU,
860,Kirakira,-10.4544,161.9205,79.14,82,100,7.47,SB,
861,Pochutla,15.7432,-96.4661,73.99,89,2,3.94,MX,
862,Pringsewu,-5.3582,104.9744,81.03,86,100,0.81,ID,
863,Waddan,29.1614,16.139,77.41,16,100,16.13,LY,
864,Shache,38.4167,77.2406,50.23,38,7,10.71,CN,
865,Batabano,22.7164,-82.2881,73.4,100,20,4.61,CU,
866,Hamilton,39.1834,-84.5333,21.2,79,90,9.22,US,
867,Ahipara,-35.1667,173.1667,61.43,83,66,5.77,NZ,
868,Mussomeli,37.5778,13.7513,63.0,53,85,1.01,IT,
869,Miyako,39.6367,141.9525,33.42,87,9,7.34,JP,
870,Abbeville,50.1,1.8333,32.0,85,93,8.48,FR,
871,Bayevo,53.2833,80.7667,26.65,93,44,20.85,RU,
872,Kavaratti,10.5669,72.642,81.95,63,2,7.78,IN,
873,Oktyabrskiy,54.4815,53.471,-3.06,88,100,14.7,RU,
874,Ledyard,41.4398,-72.0142,33.01,74,1,4.61,US,
875,Mbeya,-8.9,33.45,72.39,79,61,3.27,TZ,
876,Mayumba,-3.432,10.6554,80.69,81,84,1.3,GA,
877,Mercedes,-34.6515,-59.4307,62.01,92,0,5.79,AR,
878,Polgardi,47.061,18.302,44.6,81,0,9.22,HU,
879,Verkhnevilyuysk,63.4453,120.3167,-19.8,87,67,6.53,RU,
880,Barrhead,55.7992,-4.3929,34.0,80,90,14.97,GB,
881,Bihoro,43.8228,144.1044,14.0,79,75,6.91,JP,
882,Nurota,40.5614,65.6886,57.2,62,100,6.91,UZ,
883,Castro,-24.7911,-50.0119,54.95,97,45,3.6,BR,
884,Dunedin,-45.8742,170.5036,60.01,90,5,4.0,NZ,
885,Rio Cuarto,-33.1307,-64.3499,64.4,77,0,6.91,AR,
886,Matara,5.9485,80.5353,85.8,65,46,6.13,LK,
887,Aborlan,9.4352,118.5492,86.0,70,20,13.8,PH,
888,Rudbar,30.15,62.6,76.93,15,0,3.42,AF,
889,Sikasso,10.9167,-7.0,85.89,14,14,8.95,ML,
890,Wasilla,61.5814,-149.4394,10.4,84,90,1.61,US,
891,Changchun,43.88,125.3228,6.8,56,0,4.47,CN,
892,Paamiut,61.994,-49.6678,33.69,80,100,7.43,GL,
893,Hambantota,6.1241,81.1185,89.6,66,20,13.8,LK,
894,Coahuayana,18.7333,-103.6833,69.91,85,40,3.47,MX,
895,Faya,18.3851,42.4509,64.4,45,20,14.97,SA,
896,Saint-Philippe,-21.3585,55.7679,87.8,62,0,10.36,RE,
897,Santa Rita Do Sapucai,-22.2522,-45.7033,63.0,88,48,2.01,BR,
898,Tromso,69.6496,18.957,28.4,86,40,11.5,NO,
899,Alice Springs,-23.7,133.8833,89.6,18,22,14.97,AU,
900,Longyearbyen,78.2186,15.6401,19.4,73,75,9.22,SJ,
901,Fengzhen,40.4394,113.1536,24.1,69,0,3.91,CN,
902,Saint-Louis,16.3333,-15.0,62.6,55,0,2.3,SN,
903,Balod,20.73,81.2047,83.71,15,2,7.58,IN,
904,Chuy,-33.6971,-53.4616,65.48,82,0,2.06,UY,
905,La Montanita,1.4766,-75.4398,72.97,90,99,1.23,CO,
906,Uddevalla,58.3478,11.9424,23.0,86,90,11.5,SE,
907,Kudahuvadhoo,2.6708,72.8944,82.0,75,65,15.82,MV,
908,Verkhnyaya Inta,65.9811,60.3094,-15.41,88,100,17.22,RU,
909,Tungor,53.3808,142.9564,7.12,94,100,20.24,RU,
910,Hamina,60.5697,27.1979,19.0,86,90,10.36,FI,
911,Batemans Bay,-35.7167,150.1833,68.0,79,62,4.0,AU,
912,Corrente,-3.7367,-43.3394,74.1,93,28,1.86,BR,
913,Ostrovnoy,68.0531,39.5131,8.08,89,100,12.93,RU,
914,Thompson,55.7435,-97.8558,-34.6,67,20,12.66,CA,
915,Turka,49.1541,23.0297,28.0,86,100,8.01,UA,
916,Ifakara,-8.1333,36.6833,83.55,69,97,3.02,TZ,
917,Ampanihy,-24.7,44.75,94.32,45,36,1.21,MG,
918,Los Llanos De Aridane,28.6585,-17.9182,60.8,67,20,5.75,ES,
919,Kargil,34.5667,76.1,16.39,74,0,0.29,IN,
920,Herat,34.5,62.0,69.8,18,0,2.3,AF,
921,Matale,7.4721,80.6234,82.49,62,92,6.76,LK,
922,Comodoro Rivadavia,-45.8667,-67.5,55.4,82,75,4.14,AR,
923,Fort Nelson,58.8053,-122.7002,-27.4,68,1,4.61,CA,
924,Harwich,51.9419,1.2844,32.0,90,100,24.0,GB,
925,Arlit,18.7369,7.3853,81.75,12,66,10.25,NE,
926,Ortigueira,-24.2083,-50.9494,59.05,96,28,2.51,BR,
927,Bulgan,48.8125,103.5347,11.14,89,4,2.64,MN,
928,Udachnyy,66.4167,112.4,-23.12,84,98,8.55,RU,
929,Pavino,59.1139,46.1414,-9.98,88,100,10.94,RU,
930,Farah,32.5,62.5,69.89,18,0,1.63,AF,
931,Uzhur,55.3036,89.8339,20.7,96,37,6.46,RU,
932,Tupik,54.4253,119.9327,-14.91,84,20,1.99,RU,
933,Kihurio,-4.4667,38.0667,85.62,55,60,8.12,TZ,
934,Newport,51.5877,-2.9984,39.0,82,93,23.31,GB,
935,Coolum Beach,-26.5333,153.1,79.0,94,99,5.93,AU,
936,Burgeo,47.6167,-57.6152,29.7,86,82,38.9,CA,
937,Sao Joao Da Barra,-21.6403,-41.0511,69.8,100,90,4.61,BR,
938,Miquelon,47.0975,-56.3814,33.19,84,99,44.98,PM,
939,Port Lincoln,-34.7333,135.8667,62.04,74,4,14.47,AU,
940,Krasnoselkup,65.7,82.4667,-3.32,92,100,17.36,RU,
941,Tindivanam,12.25,79.65,86.0,36,12,16.17,IN,
942,Ndele,8.4109,20.6473,86.77,13,9,9.13,CF,
943,Cesky Dub,50.6605,14.9962,25.0,98,100,3.62,CZ,
944,Ngaoundere,7.3167,13.5833,85.78,14,99,8.57,CM,
945,La Ronge,55.1001,-105.2842,-38.2,67,0,4.61,CA,
946,Chililabombwe,-12.3648,27.8229,72.75,88,90,9.6,ZM,
947,Adeje,28.1227,-16.726,64.0,63,20,6.91,ES,
948,Wolgast,54.05,13.7667,23.0,62,0,14.97,DE,
949,Mirpur Khas,25.5251,69.0159,86.4,12,0,5.28,PK,
950,Tigil,57.8,158.6667,31.33,93,79,25.46,RU,
951,Rio Gallegos,-51.6226,-69.2181,49.3,60,6,5.91,AR,
952,Kenai,60.5544,-151.2583,12.0,92,90,9.22,US,
953,Alekseyevsk,57.8406,108.3492,17.47,95,100,13.85,RU,
954,Portland,45.5234,-122.6762,44.6,87,90,5.75,US,
955,Kununurra,-15.7667,128.7333,86.0,84,75,5.75,AU,
956,Camapua,-19.5314,-54.0439,64.62,82,0,3.65,BR,
957,Beauceville,46.2179,-70.7787,6.8,78,0,2.3,CA,
958,Ola,59.5833,151.2833,13.44,89,100,23.49,RU,
959,Chilca,-12.5211,-76.7372,73.0,78,75,4.61,PE,
960,Teguldet,57.3064,88.1667,35.38,86,21,9.62,RU,
961,Pampa,35.5362,-100.9599,28.4,93,90,12.66,US,
962,Ilulissat,69.2167,-51.1,28.4,40,0,27.63,GL,
963,Torbay,47.6666,-52.7314,32.0,69,90,31.07,CA,
964,Gobabis,-22.45,18.9667,84.18,32,0,16.87,NA,
965,Khasan,42.4308,130.6434,15.48,87,9,8.08,RU,
966,Kotido,2.9806,34.1331,88.16,14,6,13.78,UG,
967,Souillac,-20.5167,57.5167,87.8,62,40,14.97,MU,
968,Linhares,-19.3911,-40.0722,74.28,92,99,1.5,BR,
969,Krasne,49.9145,24.6134,17.6,93,75,15.66,UA,
970,Cafarnaum,-11.6936,-41.4683,70.95,84,95,1.36,BR,
971,Nipawin,53.3668,-104.0009,-27.4,68,1,10.36,CA,
972,Atar,20.5169,-13.0499,59.0,23,0,17.27,MR,
973,Uni,57.7535,51.4923,-3.96,89,100,12.3,RU,
974,Mitu,1.1983,-70.1733,71.13,96,100,1.14,CO,
975,Mordovo,52.0834,40.77,0.28,90,23,12.8,RU,
976,Pacific Grove,36.6177,-121.9166,44.6,81,20,5.48,US,
977,Sakiai,54.9547,23.0358,3.2,78,20,3.44,LT,
978,Rumuruti,0.267,36.5389,74.01,44,94,4.47,KE,
979,Vila Velha,-20.3297,-40.2925,71.6,88,90,5.75,BR,
980,Poso,-1.3959,120.7524,81.66,72,100,0.58,ID,
981,Basoko,1.2391,23.616,90.97,25,41,3.96,CD,
982,Castle Rock,39.3722,-104.8561,34.0,56,0,1.99,US,
983,Touros,-5.1989,-35.4608,75.2,88,20,3.44,BR,
984,Tateyama,34.9833,139.8667,55.0,82,40,5.75,JP,
985,Ust-Maya,60.4167,134.5333,-30.8,82,11,2.75,RU,
986,Promyshlennaya,54.9159,85.6385,33.8,86,40,15.66,RU,
987,Yar-Sale,66.8333,70.8333,-13.41,89,100,24.99,RU,
988,Binghamton,42.0987,-75.918,19.4,45,1,6.91,US,
989,Christchurch,-43.5333,172.6333,62.01,88,20,14.97,NZ,
990,Meulaboh,4.1363,96.1285,85.03,67,85,6.02,ID,
991,Araouane,18.9048,-3.5265,67.75,26,93,19.35,ML,
992,Walvis Bay,-22.9575,14.5053,68.0,68,31,9.22,NA,
993,Solsona,41.994,1.5171,41.0,92,100,3.0,ES,
994,Broken Hill,-31.95,141.4333,78.8,31,0,14.97,AU,
995,Ranavav,21.6842,69.7408,84.2,21,0,13.8,IN,
996,Tezu,27.9167,96.1667,77.79,20,0,3.67,IN,
997,Yarada,17.65,83.2667,82.4,39,83,12.66,IN,
998,Miraflores,19.2167,-98.8083,55.4,47,1,2.48,MX,
999,Nabire,-3.3667,135.4833,79.41,80,100,1.88,ID,
1000,Hope,33.6671,-93.5916,42.01,69,80,1.99,US,
1001,Esmeraldas,-19.7625,-44.3139,68.0,94,75,5.75,BR,
1002,Basco,20.4487,121.9702,74.19,87,100,24.11,PH,
1003,Chanute,37.6792,-95.4572,17.6,79,90,10.36,US,
1004,Chopovychi,50.8332,28.9533,12.9,85,80,5.91,UA,
1005,Stillwater,36.1156,-97.0584,27.0,74,90,4.61,US,
1006,Sarai Sidhu,30.5949,71.9698,73.4,38,0,4.61,PK,
1007,Odweyne,9.4092,45.064,81.7,28,20,4.68,SO,
1008,Ballina,-28.8667,153.5667,78.8,78,90,5.75,AU,
1009,Itaituba,-4.2761,-55.9836,73.06,98,99,2.3,BR,
1010,Tabou,4.423,-7.3528,83.48,74,98,4.5,CI,
1011,Maniitsoq,65.4167,-52.9,31.08,79,0,26.19,GL,
1012,Mokrousovo,55.8103,66.7653,8.65,93,100,23.17,RU,
1013,Katherine,-14.4667,132.2667,73.4,100,75,5.75,AU,
1014,Shubarshi,48.5872,57.1869,21.02,92,62,13.15,KZ,
1015,Constitucion,-35.3333,-72.4167,55.62,91,20,5.23,CL,
1016,Bend,44.0582,-121.3153,37.4,60,1,11.5,US,
1017,Bagdarin,54.4333,113.6,-5.51,85,95,1.19,RU,
1018,Vanavara,60.34,102.2797,20.21,97,100,7.99,RU,
1019,Imbituba,-28.24,-48.6703,66.2,82,0,5.75,BR,
1020,Imeni Stepana Razina,54.8932,44.2963,-2.16,89,100,14.34,RU,
1021,Rajura,19.7833,79.3667,88.0,14,0,6.89,IN,
1022,Goroka,-6.0834,145.3873,63.82,88,100,1.83,PG,
1023,Keskin,39.6731,33.6136,55.0,48,70,1.01,TR,
1024,Tricase,39.9304,18.3553,61.0,88,75,14.97,IT,
1025,Lakes Entrance,-37.8811,147.981,64.0,65,10,12.82,AU,
1026,Istok,42.7808,20.4875,50.0,76,75,1.72,XK,
1027,Kahului,20.8947,-156.47,64.99,77,20,4.88,US,
1028,Shenjiamen,29.9576,122.298,53.62,66,52,6.02,CN,
1029,Norton,-17.8833,30.7,79.0,52,97,3.0,ZW,
1030,Tilichiki,60.4667,166.1,13.42,89,100,14.79,RU,
1031,Pyay,18.8167,95.2167,91.51,26,73,8.03,MM,
1032,San Cristobal,7.7669,-72.225,66.6,84,95,2.77,VE,
1033,Namatanai,-3.6667,152.4333,81.54,78,38,5.82,PG,
1034,Carauari,-4.8828,-66.8958,73.6,98,100,2.24,BR,
1035,Auka,14.9333,-83.8333,70.45,97,22,2.86,HN,
1036,Bandipur,27.9333,84.4167,69.4,27,0,7.25,NP,
1037,Haikou,20.0458,110.3417,75.2,69,0,13.42,CN,
1038,Umm Lajj,25.0213,37.2685,77.74,26,0,12.1,SA,
1039,Saint-Joseph,-21.3667,55.6167,87.8,62,0,10.36,RE,
1040,Kibuye,-2.0597,29.3482,73.4,68,75,4.61,RW,
1041,Borkenes,68.774,16.1739,30.99,96,100,15.99,NO,
1042,Dawei,14.0833,98.2,84.45,54,0,8.55,MM,
1043,Tevaitoa,-16.7833,-151.5,82.11,73,32,12.48,PF,
1044,Kathu,7.9178,98.3332,87.8,66,20,5.75,TH,
1045,Bam,29.106,58.357,76.55,13,0,3.36,IR,
1046,Whitehaven,54.549,-3.5841,33.01,71,4,4.0,GB,
1047,Campeche,19.0,-90.5,65.17,95,18,1.86,MX,
1048,Ojinaga,29.5667,-104.4167,48.2,20,1,10.36,MX,
1049,Saint Anthony,45.0205,-93.218,-11.2,70,1,5.75,US,
1050,Gizo,-8.103,156.8419,83.97,71,99,3.65,SB,
1051,Bilibino,68.0546,166.4372,-4.38,71,0,3.71,RU,
1052,Kampot,10.6167,104.1833,84.2,65,20,8.05,KH,
1053,Kuusamo,65.9667,29.1833,19.4,79,40,12.66,FI,
1054,Mbaiki,3.8678,17.9892,94.64,12,3,6.46,CF,
1055,Luanda,-8.8368,13.2343,82.4,74,75,3.44,AO,
1056,Jonkoping,57.7814,14.1562,19.4,93,90,8.05,SE,
1057,Pevek,69.7008,170.3133,-10.21,86,0,2.13,RU,
1058,Atlantic City,39.3643,-74.4229,42.01,93,90,4.61,US,
1059,Montelimar,44.5584,4.7509,46.99,85,100,6.04,FR,
1060,Mpanda,-6.3655,31.0409,79.11,70,82,4.43,TZ,
1061,Drumnadrochit,57.3344,-4.4799,32.0,74,90,9.22,GB,
1062,Nowy Tomysl,52.3195,16.1284,21.0,58,90,14.97,PL,
1063,Svetlyy,54.675,20.1347,12.0,85,40,2.24,RU,
1064,Zile,40.3031,35.8864,55.4,41,40,3.44,TR,
1065,Muli,2.9167,73.5667,81.97,74,50,16.62,MV,
1066,Vung Tau,10.346,107.0843,78.84,77,30,15.64,VN,
1067,Srednekolymsk,67.45,153.6833,-9.08,85,100,5.3,RU,
1068,Klaksvik,62.2266,-6.589,35.6,64,75,18.41,FO,
1069,Nouadhibou,20.931,-17.0347,60.8,72,0,18.41,MR,
1070,Misratah,32.3754,15.0925,70.9,27,100,14.12,LY,
1071,San Felipe,10.3399,-68.7425,68.97,91,100,3.27,VE,
1072,Mongu,-15.2484,23.1274,82.47,63,95,7.7,ZM,
1073,Staryy Nadym,65.6118,72.6842,-4.61,92,100,22.95,RU,
1074,Portree,57.4129,-6.1942,32.0,79,45,3.0,GB,
1075,Manjacaze,-24.7117,33.8828,90.1,45,88,5.46,MZ,
1076,Hualmay,-11.0964,-77.6139,70.18,77,100,2.15,PE,
1077,Grindavik,63.8424,-22.4338,33.8,60,20,16.11,IS,
1078,Kalakamati,-20.5929,27.3121,80.6,69,75,8.05,BW,
1079,Orsta,62.2029,6.1272,21.99,68,0,7.0,NO,
1080,Whitehorse,60.7161,-135.0538,-11.2,77,75,4.61,CA,
1081,Ossora,59.2353,163.0719,24.94,96,100,39.5,RU,
1082,Port Blair,11.6667,92.75,82.58,67,26,10.71,IN,
1083,Behbahan,30.5959,50.2417,68.0,60,75,13.8,IR,
1084,Vanimo,-2.6741,141.3028,78.69,84,100,4.32,PG,
1085,Gornyy,55.1153,83.9059,33.12,95,99,20.98,RU,
1086,Manthani,18.65,79.6667,89.22,18,39,7.34,IN,
1087,Fourmies,50.0153,4.0478,34.0,98,100,1.01,FR,
1088,Miracema Do Tocantins,-9.5618,-48.3967,72.36,92,100,3.27,BR,
1089,Bouca,6.5105,18.2733,93.87,11,32,6.8,CF,
1090,Itarema,-2.9248,-39.9167,77.36,85,14,8.46,BR,
1091,Darab,28.7519,54.5444,64.69,33,39,13.29,IR,
1092,Lure,47.75,6.5,42.8,93,75,6.91,FR,
1093,Chicama,-7.8447,-79.1469,71.76,68,97,3.13,PE,
1094,Muleba,-1.8397,31.6544,78.8,65,75,5.75,TZ,
1095,Leshukonskoye,64.8989,45.7622,-13.14,86,98,10.96,RU,
1096,Brae,60.3964,-1.353,33.8,55,75,14.97,GB,
1097,Maningrida,-12.0667,134.2667,79.99,81,100,11.12,AU,
1098,Oni,42.5794,43.4425,41.16,75,100,3.83,GE,
1099,Roma,43.2128,-75.4557,10.4,67,1,10.36,US,
1100,Taywarah,33.35,64.4167,48.83,38,0,7.9,AF,
1101,Ajdabiya,30.7554,20.2263,69.31,31,100,16.02,LY,
1102,Hazorasp,41.3194,61.0742,53.6,66,0,11.5,UZ,
1103,Moroto,2.5345,34.6666,85.05,19,1,11.43,UG,
1104,Aasiaat,68.7098,-52.8699,20.64,87,0,19.33,GL,
1105,Taoudenni,22.6783,-3.9836,65.3,27,7,13.69,ML,
1106,Bayangol,50.6977,103.4656,5.43,91,4,2.08,RU,
1107,Seoul,37.5683,126.9778,41.0,25,0,13.8,KR,
1108,Cockburn Town,21.4612,-71.1419,77.43,79,82,21.5,TC,
1109,Luganville,-15.5333,167.1667,79.47,72,51,6.82,VU,
1110,Senneterre,48.3835,-77.2328,6.8,92,90,8.05,CA,
1111,Kargopol,61.5071,38.9456,-6.25,88,19,8.68,RU,
1112,Ribeira Brava,32.65,-17.0667,59.0,81,85,4.0,PT,
1113,Ugoofaaru,5.6667,73.0,81.95,73,72,11.1,MV,
1114,Malumfashi,11.7853,7.6218,79.61,15,16,11.56,NG,
1115,Ewa Beach,21.3156,-158.0072,66.2,68,1,5.75,US,
1116,Kearney,40.6995,-99.0815,5.0,92,90,11.5,US,
1117,Huarmey,-10.0681,-78.1522,70.93,73,100,3.13,PE,
1118,Saint George,37.1041,-113.5841,37.4,44,1,2.48,US,
1119,Deniliquin,-35.5333,144.9667,66.0,53,38,3.0,AU,
1120,Dalianwan,39.0286,121.695,28.4,37,0,11.18,CN,
1121,Marystown,47.1666,-55.1483,32.0,88,84,32.93,CA,
1122,Leh,34.1667,77.5833,23.18,69,0,1.21,IN,
1123,Dauphin,51.1494,-100.0502,-29.2,62,1,10.36,CA,
1124,Cedral,23.8,-100.7333,53.49,85,28,10.8,MX,
1125,Powell River,49.8496,-124.5361,39.2,65,1,11.5,CA,
1126,Cayenne,4.9333,-52.3333,77.0,100,75,1.14,GF,
1127,Galesong,-5.3166,119.3661,86.0,70,20,6.91,ID,
1128,Ubinskoye,55.3068,79.6802,21.36,94,83,23.24,RU,
1129,Glenwood Springs,39.5505,-107.3248,28.0,67,90,6.89,US,
1130,Hobyo,5.3505,48.5268,83.08,59,6,19.53,SO,
1131,Teguise,29.0605,-13.564,60.8,72,75,4.61,ES,
1132,Mehamn,71.0357,27.8492,23.65,93,100,20.13,NO,
1133,Bontang,0.1333,117.5,82.18,76,100,6.11,ID,
1134,Quipapa,-8.8278,-36.0117,73.27,79,91,6.96,BR,
1135,Kodinsk,58.6881,99.1844,27.75,97,98,5.17,RU,
1136,Luderitz,-26.6481,15.1594,81.79,34,0,27.31,NA,
1137,Codrington,-38.2667,141.9667,55.96,74,27,11.41,AU,
1138,Makushino,55.2103,67.2442,7.59,91,100,24.83,RU,
1139,Vaini,-21.2,-175.2,78.8,94,75,10.36,TO,
1140,Nishihara,26.1842,127.7558,66.2,52,20,8.05,JP,
1141,Rikitea,-23.1203,-134.9692,77.11,74,49,11.3,PF,
1142,Ushuaia,-54.8,-68.3,44.6,76,40,9.22,AR,
1143,Hermanus,-34.4187,19.2345,69.01,81,99,3.0,ZA,
1144,Mount Isa,-20.7333,139.5,82.4,74,100,9.22,AU,
1145,Antalaha,-14.9003,50.2788,84.94,63,47,7.4,MG,
1146,Honiara,-9.4333,159.95,78.78,82,100,6.44,SB,
1147,West Wendover,40.7391,-114.0733,48.2,20,1,12.66,US,
1148,Yantal,56.8471,105.2542,22.15,95,100,10.11,RU,
1149,Punta Arenas,-53.15,-70.9167,42.8,87,0,5.75,CL,
1150,Kapaa,22.0752,-159.319,62.6,77,90,8.05,US,
1151,Taksimo,56.3444,114.8794,-8.07,85,100,1.23,RU,
1152,Mlonggo,-6.5333,110.7,80.6,89,75,9.22,ID,
1153,Asau,46.4333,26.4,28.99,74,98,4.52,RO,
1154,Methoni,36.8197,21.7049,62.6,67,20,11.48,GR,
1155,Clyde River,70.4692,-68.5914,-4.0,92,90,2.3,CA,
1156,Cape Town,-33.9258,18.4232,73.4,53,20,21.85,ZA,
1157,Goderich,43.7501,-81.7165,19.4,79,100,13.8,CA,
1158,Fare,-16.7,-151.0167,81.77,76,15,12.88,PF,
1159,Busselton,-33.65,115.3333,62.01,93,100,3.0,AU,
1160,Leningradskiy,69.3833,178.4167,-11.61,72,11,4.72,RU,
1161,Bluff,-46.6,168.3333,57.06,89,88,6.6,NZ,
1162,Mataura,-46.1927,168.8643,56.1,92,58,2.59,NZ,
1163,Puerto Ayora,-0.7393,-90.3518,75.99,96,43,1.99,EC,
1164,Albany,42.6001,-73.9662,19.0,55,100,0.87,US,
1165,Bethel,41.3712,-73.414,28.0,79,1,3.42,US,
1166,Brooks,50.5834,-111.8851,-13.0,84,100,5.75,CA,
1167,Teya,60.3778,92.6267,32.38,95,100,7.92,RU,
1168,Araucaria,-25.5931,-49.4103,61.0,100,75,4.61,BR,
1169,Dubrovka,53.6907,33.5071,6.8,72,20,11.18,RU,
1170,Enumclaw,47.2043,-121.9915,44.01,80,100,11.01,US,
1171,Hobart,-42.8794,147.3294,59.0,47,20,16.11,AU,
1172,Oriximina,-1.7656,-55.8661,74.86,91,100,1.97,BR,
1173,Carnarvon,-24.8667,113.6333,86.0,100,40,11.5,AU,
1174,Radchenko,56.6803,36.3718,8.98,93,98,11.14,RU,
1175,Lenauheim,45.8719,20.7994,54.0,100,0,9.22,RO,
1176,Alofi,-19.0595,-169.9187,78.8,94,100,4.61,NU,
1177,Victoria,22.2855,114.1577,78.01,36,0,10.36,HK,
1178,Henties Bay,-22.116,14.2845,66.99,87,90,5.99,NA,
1179,Jamestown,42.097,-79.2353,17.6,53,75,4.61,US,
1180,Jetalsar,21.7,70.5833,86.0,22,0,7.36,IN,
1181,Sokolo,14.7328,-6.1219,75.45,21,100,19.51,ML,
1182,San Patricio,28.017,-97.5169,55.4,71,1,4.61,US,
1183,East London,-33.0153,27.9116,77.0,65,20,11.5,ZA,
1184,Shush,32.1942,48.2436,64.67,66,100,9.69,IR,
1185,Maldonado,-34.6667,-54.9167,63.0,100,20,2.3,UY,
1186,Bambous Virieux,-20.3428,57.7575,87.8,62,40,14.97,MU,
1187,Imeni Poliny Osipenko,52.4201,136.4853,3.99,92,100,12.48,RU,
1188,Cozumel,20.5083,-86.9458,78.01,92,62,10.98,MX,
1189,Arraial Do Cabo,-22.9661,-42.0278,73.4,83,75,6.91,BR,
1190,Lebu,-37.6167,-73.65,56.79,93,75,3.65,CL,
1191,Flin Flon,54.7682,-101.865,-37.26,79,19,8.14,CA,
1192,Svetlaya,46.5389,138.3297,4.98,86,45,11.01,RU,
1193,Paragould,36.0584,-90.4973,30.2,80,90,9.22,US,
1194,Nanortalik,60.1432,-45.2371,32.23,89,67,4.09,GL,
1195,Nhulunbuy,-12.2333,136.7667,78.8,89,95,9.22,AU,
1196,Parga,39.2831,20.3964,60.8,82,20,9.22,GR,
1197,Komsomolskiy,40.4272,71.7189,53.6,37,83,6.91,UZ,
1198,Fairfield,41.2668,-73.3162,32.0,69,1,5.75,US,
1199,Lorengau,-2.0226,147.2712,82.33,80,81,6.93,PG,
1200,Hilo,19.7297,-155.09,68.0,73,75,4.61,US,
1201,Mar Del Plata,-38.0023,-57.5575,66.0,82,75,5.75,AR,
1202,Neftcala,39.3742,49.2472,60.71,40,0,12.15,AZ,
1203,Dikson,73.5069,80.5464,-27.11,87,91,9.6,RU,
1204,Yellowknife,62.456,-114.3525,-45.99,73,1,4.61,CA,
1205,Mount Gambier,-37.8333,140.7667,60.8,63,90,16.11,AU,
1206,Port Hedland,-20.3167,118.5667,87.8,58,0,17.27,AU,
1207,Severo-Kurilsk,50.6789,156.125,23.41,93,100,27.07,RU,
1208,Mogadishu,2.0371,45.3438,84.2,58,40,20.71,SO,
1209,Tuktoyaktuk,69.4541,-133.0374,-15.59,87,100,16.69,CA,
1210,Belmonte,-15.8631,-38.8828,77.0,88,75,5.75,BR,
1211,Lavrentiya,65.5833,-171.0,-12.46,78,0,4.68,RU,
1212,Hun,29.1268,15.9477,77.54,16,100,17.27,LY,
1213,Quatre Cocos,-20.2078,57.7625,87.8,62,40,14.97,MU,
1214,Ribeira Grande,38.5167,-28.7,60.8,88,20,12.66,PT,
1215,Nara,34.6851,135.8049,53.6,54,40,11.5,JP,
1216,Sao Filipe,14.8961,-24.4956,69.19,71,19,14.74,CV,
1217,Simpang,-1.2667,104.0833,83.25,68,100,7.18,ID,
1218,Barrow,71.2906,-156.7887,-7.6,77,75,12.66,US,
1219,Husavik,66.0449,-17.3389,33.8,75,75,3.44,IS,
1220,Georgetown,5.4112,100.3354,89.6,58,20,10.36,MY,
1221,Atuona,-9.8,-139.0333,79.32,76,70,21.85,PF,
1222,Eshowe,-28.8865,31.4699,82.36,66,62,11.77,ZA,
1223,Saskylakh,71.9167,114.0833,-38.94,78,25,11.12,RU,
1224,Avarua,-21.2078,-159.775,78.8,83,6,3.44,CK,
1225,Tabas,33.5959,56.9244,69.8,14,0,2.3,IR,
1226,Corinto,37.9407,22.9573,63.0,49,75,1.99,GR,
1227,Nikolskoye,59.7035,30.7861,14.0,85,75,15.66,RU,
1228,Khatanga,71.9667,102.5,-31.59,79,0,8.55,RU,
1229,Vao,-22.6667,167.4833,77.95,87,0,11.18,NC,
1230,Marawi,7.9986,124.2928,78.01,91,100,1.01,PH,
1231,Port Elizabeth,-33.918,25.5701,78.8,61,40,24.16,ZA,
1232,Nehe,48.4833,124.8333,-4.81,88,0,5.32,CN,
1233,Baft,29.234,56.6057,53.8,34,56,9.1,IR,
1234,Narsaq,60.9167,-46.05,41.0,30,75,44.87,GL,
1235,Patti,31.2808,74.8572,71.6,52,0,6.91,IN,
1236,Ust-Kuyga,70.0167,135.6,-29.31,82,32,4.76,RU,
1237,Haines Junction,60.7522,-137.5108,-18.4,69,95,1.14,CA,
1238,Perdoes,-21.0908,-45.0914,62.08,89,100,5.46,BR,
1239,Ponta Do Sol,32.6667,-17.1,59.0,63,88,1.01,PT,
1240,Okha,53.5739,142.9478,7.29,94,100,20.07,RU,
1241,Muros,42.7762,-9.0603,44.01,94,100,1.01,ES,
1242,Qostanay,53.1667,63.5833,10.4,67,0,35.79,KZ,
1243,Isangel,-19.55,169.2667,79.43,76,75,4.41,VU,
1244,Tucuman,-26.8241,-65.2226,66.2,88,0,5.75,AR,
1245,Ambilobe,-13.2,49.05,87.3,65,99,5.61,MG,
1246,Bredasdorp,-34.5322,20.0403,69.8,64,100,8.05,ZA,
1247,Huangzhou,30.45,114.8,50.0,100,90,4.47,CN,
1248,Aklavik,68.2191,-135.0107,-13.0,77,100,5.75,CA,
1249,Berlevag,70.8578,29.0864,24.15,93,100,21.16,NO,
1250,Athabasca,54.7169,-113.2854,-40.0,66,0,2.3,CA,
1251,Port Alfred,-33.5906,26.891,75.99,76,41,5.01,ZA,
1252,Terrak,65.087,12.3715,24.8,68,0,4.61,NO,
1253,Olawa,50.9466,17.2926,21.99,81,100,5.01,PL,
1254,Yeppoon,-23.1333,150.7333,87.8,58,95,12.66,AU,
1255,Monster,52.0258,4.175,26.01,93,75,25.32,NL,
1256,Ossipee,43.6854,-71.1167,15.01,76,92,2.3,US,
1257,Kodiak,57.79,-152.4072,23.0,68,1,6.91,US,
1258,Bonavista,48.6499,-53.1147,32.0,74,0,11.5,CA,
1259,Salamiyah,35.0113,37.0532,64.56,47,0,11.72,SY,
1260,Ayan,56.45,138.1667,-3.41,80,100,19.71,RU,
1261,Beringovskiy,63.05,179.3167,-6.97,91,99,12.91,RU,
1262,Starokozache,46.3372,29.9853,28.0,86,90,11.18,UA,
1263,Nelson Bay,-32.7167,152.15,73.4,83,0,10.36,AU,
1264,Inhambane,-23.865,35.3833,89.6,58,40,4.61,MZ,
1265,New Norfolk,-42.7826,147.0587,57.99,54,4,1.01,AU,
1266,Nome,64.5011,-165.4064,10.4,85,90,3.49,US,
1267,Hofn,64.2539,-15.2082,34.14,90,100,16.33,IS,
1268,Bengkulu,-3.8004,102.2655,85.26,68,100,12.3,ID,
1269,Mahebourg,-20.4081,57.7,87.8,62,40,14.97,MU,
1270,Wachtersbach,50.2551,9.2956,37.0,93,100,10.94,DE,
1271,Grand Gaube,-20.0064,57.6608,84.99,72,44,10.0,MU,
1272,Chokurdakh,70.6333,147.9167,-27.78,84,0,4.74,RU,
1273,Pisco,-13.7,-76.2167,71.6,83,100,0.87,PE,
1274,Akyab,20.15,92.9,81.27,41,0,21.21,MM,
1275,Bonnyville,54.2668,-110.735,-32.8,75,1,2.51,CA,
1276,Bathsheba,13.2167,-59.5167,78.8,69,75,20.71,BB,
1277,Kloulklubed,7.0419,134.2556,80.6,89,90,6.91,PW,
1278,Eyl,7.9803,49.8164,85.28,47,35,19.13,SO,
1279,Bakchar,57.0186,82.0711,32.72,94,95,17.83,RU,
1280,Sao Jose Da Coroa Grande,-8.8978,-35.1478,80.13,76,43,8.86,BR,
1281,Tasiilaq,65.6145,-37.6368,32.0,55,20,17.27,GL,
1282,Cabo San Lucas,22.8909,-109.9124,57.99,72,53,4.18,MX,
1283,Valparaiso,-33.0393,-71.6273,60.8,88,90,3.44,CL,
1284,Unguia,8.0434,-77.0945,75.61,89,100,1.66,CO,
1285,Gambissara,13.2382,-14.3108,77.38,19,4,12.41,SN,
1286,Xingyi,24.1877,102.817,50.16,92,100,2.3,CN,
1287,Priladozhskiy,59.85,31.4833,14.0,48,100,10.83,RU,
1288,Cidreira,-30.1811,-50.2056,67.19,79,0,10.89,BR,
1289,Vardo,70.3705,31.1107,25.32,93,100,25.19,NO,
1290,Ketchikan,55.3422,-131.6461,32.0,74,1,14.97,US,
1291,Padang,-0.9492,100.3543,91.4,55,20,8.05,ID,
1292,Olafsvik,64.8945,-23.7142,33.33,85,0,14.38,IS,
1293,Vila Franca Do Campo,37.7167,-25.4333,60.01,94,75,24.16,PT,
1294,Kampene,-3.6,26.6667,81.45,79,62,2.06,CD,
1295,Saint-Pierre,-21.3393,55.4781,87.8,62,0,10.36,RE,
1296,Kawalu,-7.3817,108.2082,75.85,88,96,1.48,ID,
1297,Beaverlodge,55.2166,-119.4361,-41.8,66,75,5.75,CA,
1298,Ulaangom,49.9811,92.0667,-1.28,91,95,0.74,MN,
1299,Saint-Augustin,51.226,-58.6502,26.04,95,100,19.01,CA,
1300,Coihaique,-45.5752,-72.0662,50.0,76,0,3.44,CL,
1301,Qaanaaq,77.484,-69.3632,10.24,90,100,1.92,GL,
1302,Gigmoto,13.7796,124.39,79.41,84,83,13.29,PH,
1303,Katsuura,35.1333,140.3,53.6,82,40,5.75,JP,
1304,Upernavik,72.7868,-56.1549,21.7,80,100,6.31,GL,
1305,Norman Wells,65.282,-126.8329,-20.2,76,75,16.11,CA,
1306,Acheng,45.5454,126.977,3.2,72,0,6.71,CN,
1307,Talnakh,69.4865,88.3972,-27.83,71,0,2.89,RU,
1308,Dingle,10.9995,122.6711,77.38,88,49,10.33,PH,
1309,Ponta Delgada,37.7333,-25.6667,60.01,94,75,24.16,PT,
1310,Butaritari,3.0707,172.7902,81.37,81,57,18.43,KI,
1311,Kutum,14.2,24.6667,71.55,20,24,14.81,SD,
1312,Hithadhoo,-0.6,73.0833,82.74,70,60,10.94,MV,
1313,Tarifa,36.0139,-5.607,55.4,82,20,20.71,ES,
1314,Reconquista,-29.15,-59.65,62.33,74,0,5.23,AR,
1315,Manta,-0.95,-80.7333,77.0,88,90,4.61,EC,
1316,Avera,33.194,-82.5271,39.2,94,90,4.61,US,
1317,Dandong,40.1292,124.3947,20.75,84,0,15.48,CN,
1318,Bambui,-20.0064,-45.9769,68.41,90,79,2.26,BR,
1319,Goure,13.9835,10.2704,75.99,15,51,8.01,NE,
1320,Xam Nua,20.4197,104.0439,71.94,63,69,3.4,LA,
1321,Savannah Bight,16.45,-85.85,79.0,90,0,3.0,HN,
1322,College,64.8569,-147.8028,-4.0,71,75,2.21,US,
1323,Eregli,37.5133,34.0467,61.81,29,0,3.04,TR,
1324,Akdepe,42.0551,59.3788,53.6,66,0,11.5,TM,
1325,Kaitangata,-46.2817,169.8464,61.0,90,31,3.0,NZ,
1326,Nemuro,43.3236,145.575,17.6,73,75,6.91,JP,
1327,Selishche,56.8879,33.2691,9.82,94,100,10.02,RU,
1328,Luzhou,28.8724,105.4405,65.66,39,83,3.98,CN,
1329,Lompoc,34.6391,-120.4579,55.0,100,90,4.61,US,
1330,Gohpur,26.8833,93.6333,80.6,41,20,3.44,IN,
1331,Geraldton,-28.7667,114.6,73.4,73,75,19.57,AU,
1332,Weligama,5.9667,80.4167,84.51,68,41,3.51,LK,
1333,Salalah,17.0151,54.0924,78.8,53,75,11.5,OM,
1334,Kamiiso,41.8167,140.65,24.8,58,40,19.57,JP,
1335,Flinders,-34.5833,150.8552,72.0,76,33,1.01,AU,
1336,Ilhabela,-23.7781,-45.3581,72.88,80,52,3.18,BR,
1337,Kihei,20.785,-156.4656,64.99,77,20,5.19,US,
1338,Bubaque,11.2833,-15.8333,74.91,49,25,18.81,GW,
1339,Sitka,57.0531,-135.33,28.4,74,75,4.61,US,
1340,Wakkanai,45.4094,141.6739,6.8,85,20,4.61,JP,
1341,Kosa,59.9445,54.9977,-8.1,89,100,8.37,RU,
1342,Yerbogachen,61.2767,108.0108,12.92,96,100,7.63,RU,
1343,Bedesa,8.9,40.7833,67.66,54,88,4.07,ET,
1344,Surt,31.2089,16.5887,72.72,26,100,15.99,LY,
1345,Faanui,-16.4833,-151.75,82.04,73,23,11.83,PF,
1346,Naze,28.3667,129.4833,60.8,67,20,4.61,JP,
1347,Rio Grande,-32.035,-52.0986,66.0,97,4,6.02,BR,
1348,Hami,42.8,93.45,42.91,53,0,4.38,CN,
1349,Ust-Ilimsk,58.0006,102.6619,26.76,97,100,7.67,RU,
1350,Provideniya,64.3833,-173.3,-4.22,79,0,13.29,RU,
1351,Beloha,-25.1667,45.05,89.28,54,74,7.85,MG,
1352,Hokitika,-42.7167,170.9667,58.77,85,0,2.06,NZ,
1353,Petrolina,-9.3986,-40.5008,77.0,78,0,3.44,BR,
1354,Shimorskoye,55.3244,42.0267,1.27,90,99,11.32,RU,
1355,Serov,59.6033,60.5787,-8.95,91,100,5.77,RU,
1356,Eastbourne,50.7687,0.2845,34.0,93,100,4.0,GB,
1357,Awjilah,29.1081,21.2869,74.86,22,60,13.67,LY,
1358,Milkovo,54.7167,158.6167,22.93,96,100,6.13,RU,
1359,Broome,42.2506,-75.833,19.4,45,1,6.91,US,
1360,China,25.7,-99.2333,58.1,37,0,3.04,MX,
1361,Sambava,-14.2667,50.1667,85.03,64,72,8.32,MG,
1362,Ancud,-41.8697,-73.8203,51.01,81,0,3.44,CL,
1363,Anadyr,64.75,177.4833,-7.01,71,0,4.47,RU,
1364,Fortuna,40.5982,-124.1573,46.99,100,90,4.34,US,
1365,Mandalgovi,45.7625,106.2708,16.34,80,0,9.35,MN,
1366,Esmeralda,21.8525,-78.1169,69.8,100,0,4.61,CU,
1367,Hammerfest,70.6634,23.6821,24.8,86,75,20.71,NO,
1368,Elesbao Veloso,-6.2019,-42.1403,75.11,79,77,1.52,BR,
1369,Sistranda,63.7256,8.834,21.2,93,40,9.22,NO,
1370,Glendive,47.1053,-104.7125,-9.4,70,90,16.11,US,
1371,Rawson,-43.3002,-65.1023,57.16,64,100,11.81,AR,
1372,Kavieng,-2.5744,150.7967,83.59,75,50,8.52,PG,
1373,Brownsville,25.9018,-97.4975,55.4,94,90,3.44,US,
1374,Casa Nova,-9.4167,-41.1333,77.0,78,0,3.44,BR,
1375,Yulara,-25.2406,130.9889,96.8,15,0,12.66,AU,
1376,Marzuq,14.4,46.4667,78.22,22,50,8.46,YE,
1377,Cabatuan,10.8794,122.486,77.45,86,45,12.86,PH,
1378,Klyuchi,52.2667,79.1667,27.09,93,34,18.61,RU,
1379,Guerrero Negro,27.9769,-114.0611,56.44,71,1,2.57,MX,
1380,Desbiens,48.4178,-71.9495,14.0,72,20,6.91,CA,
1381,Westport,41.1415,-73.3579,33.01,69,1,5.75,US,
1382,Kousseri,12.0769,15.0306,80.6,12,31,11.5,CM,
1383,Tyup,42.7276,78.3648,36.66,79,93,3.47,KG,
1384,Tiksi,71.6872,128.8694,-26.77,84,100,6.6,RU,
1385,Eydhafushi,5.1033,73.0708,81.63,75,19,12.75,MV,
1386,Emerald,-23.5333,148.1667,84.99,89,96,6.91,AU,
1387,Mana,5.6592,-53.7767,76.08,89,99,10.69,GF,
1388,Vytegra,61.0064,36.4481,-0.38,88,17,8.14,RU,
1389,Airai,-8.9266,125.4092,63.82,100,98,1.36,TL,
1390,Tongren,27.7172,109.1853,57.02,81,100,4.83,CN,
1391,Sinnamary,5.3833,-52.95,77.05,87,98,13.51,GF,
1392,Tuatapere,-46.1333,167.6833,55.65,87,79,3.0,NZ,
1393,Sabla,12.7525,4.7077,85.93,13,51,15.41,NG,
1394,Hasaki,35.7333,140.8333,54.0,47,20,4.61,JP,
1395,Zapolyarnyy,69.4154,30.8136,23.0,86,40,16.11,RU,
1396,Baykit,61.67,96.37,24.64,95,100,3.71,RU,
1397,Te Anau,-45.4167,167.7167,54.86,79,86,3.91,NZ,
1398,Esperance,-33.8667,121.9,66.2,72,90,17.27,AU,
1399,Erzin,36.9559,36.2,66.2,68,20,12.66,TR,
1400,Yendi,9.4427,-0.0099,91.26,43,87,5.68,GH,
1401,Cadillac,44.2519,-85.4012,-0.4,85,40,4.61,US,
1402,Zhangye,38.9342,100.4517,41.77,45,43,2.06,CN,
1403,Fallon,39.4735,-118.7774,39.99,69,1,8.05,US,
1404,Gushi,34.6425,109.5843,55.51,34,89,5.61,CN,
1405,Ludvika,60.1496,15.1878,16.0,79,13,8.05,SE,
1406,Saly,47.95,20.6667,32.94,90,100,8.97,HU,
1407,Cao Bang,22.6667,106.25,78.93,47,19,5.64,VN,
1408,Sungaipenuh,-2.0833,101.3833,74.89,71,96,3.89,ID,
1409,Coruripe,-10.1256,-36.1756,79.41,77,94,11.81,BR,
1410,Totness,5.8833,-56.3167,75.43,90,74,10.0,SR,
1411,Noumea,-22.2763,166.4572,80.01,94,90,3.44,NC,
1412,Saldanha,-33.0117,17.9442,77.0,50,39,17.27,ZA,
1413,Lima,-12.0432,-77.0282,73.0,78,75,4.61,PE,
1414,Namibe,-15.1961,12.1522,73.4,73,75,9.71,AO,
1415,Sillod,20.3,75.65,82.4,26,2,2.3,IN,
1416,Tazovskiy,67.4667,78.7,-18.45,86,100,16.84,RU,
1417,Ujjain,23.1833,75.7667,71.6,17,0,4.61,IN,
1418,Kruisfontein,-34.0033,24.7314,80.01,58,0,8.99,ZA,
1419,Iqaluit,63.7506,-68.5145,24.8,54,1,14.97,CA,
1420,Vallenar,-28.5708,-70.7581,55.6,83,0,1.43,CL,
1421,Cotonou,6.3654,2.4183,84.2,84,40,3.44,BJ,
1422,Marrakesh,31.6315,-8.0083,51.8,76,75,3.44,MA,
1423,High Level,58.5169,-117.136,-40.0,67,1,3.44,CA,
1424,Mehendiganj,22.8167,90.5333,77.77,34,29,9.86,BD,
1425,Buchanan,5.8808,-10.0467,77.0,94,40,3.44,LR,
1426,Cherskiy,68.75,161.3,-2.74,79,0,4.63,RU,
1427,Coquimbo,-29.9533,-71.3436,55.4,88,20,2.3,CL,
1428,Marakkanam,12.2,79.95,80.92,55,10,19.04,IN,
1429,Zhigansk,66.7697,123.3711,-29.27,82,100,15.73,RU,
1430,Kirakira,-10.4544,161.9205,79.14,82,100,7.47,SB,
1431,Pochutla,15.7432,-96.4661,73.99,89,2,3.94,MX,
1432,Pringsewu,-5.3582,104.9744,81.03,86,100,0.81,ID,
1433,Waddan,29.1614,16.139,77.41,16,100,16.13,LY,
1434,Shache,38.4167,77.2406,50.23,38,7,10.71,CN,
1435,Batabano,22.7164,-82.2881,73.4,100,20,4.61,CU,
1436,Hamilton,39.1834,-84.5333,21.2,79,90,9.22,US,
1437,Ahipara,-35.1667,173.1667,61.43,83,66,5.77,NZ,
1438,Mussomeli,37.5778,13.7513,63.0,53,85,1.01,IT,
1439,Miyako,39.6367,141.9525,33.42,87,9,7.34,JP,
1440,Abbeville,50.1,1.8333,32.0,85,93,8.48,FR,
1441,Bayevo,53.2833,80.7667,26.65,93,44,20.85,RU,
1442,Kavaratti,10.5669,72.642,81.95,63,2,7.78,IN,
1443,Oktyabrskiy,54.4815,53.471,-3.06,88,100,14.7,RU,
1444,Ledyard,41.4398,-72.0142,33.01,74,1,4.61,US,
1445,Mbeya,-8.9,33.45,72.39,79,61,3.27,TZ,
1446,Mayumba,-3.432,10.6554,80.69,81,84,1.3,GA,
1447,Mercedes,-34.6515,-59.4307,62.01,92,0,5.79,AR,
1448,Polgardi,47.061,18.302,44.6,81,0,9.22,HU,
1449,Verkhnevilyuysk,63.4453,120.3167,-19.8,87,67,6.53,RU,
1450,Barrhead,55.7992,-4.3929,34.0,80,90,14.97,GB,
1451,Bihoro,43.8228,144.1044,14.0,79,75,6.91,JP,
1452,Nurota,40.5614,65.6886,57.2,62,100,6.91,UZ,
1453,Castro,-24.7911,-50.0119,54.95,97,45,3.6,BR,
1454,Dunedin,-45.8742,170.5036,60.01,90,5,4.0,NZ,
1455,Rio Cuarto,-33.1307,-64.3499,64.4,77,0,6.91,AR,
1456,Matara,5.9485,80.5353,85.8,65,46,6.13,LK,
1457,Aborlan,9.4352,118.5492,86.0,70,20,13.8,PH,
1458,Rudbar,30.15,62.6,76.93,15,0,3.42,AF,
1459,Sikasso,10.9167,-7.0,85.89,14,14,8.95,ML,
1460,Wasilla,61.5814,-149.4394,10.4,84,90,1.61,US,
1461,Changchun,43.88,125.3228,6.8,56,0,4.47,CN,
1462,Paamiut,61.994,-49.6678,33.69,80,100,7.43,GL,
1463,Hambantota,6.1241,81.1185,89.6,66,20,13.8,LK,
1464,Coahuayana,18.7333,-103.6833,69.91,85,40,3.47,MX,
1465,Faya,18.3851,42.4509,64.4,45,20,14.97,SA,
1466,Saint-Philippe,-21.3585,55.7679,87.8,62,0,10.36,RE,
1467,Santa Rita Do Sapucai,-22.2522,-45.7033,63.0,88,48,2.01,BR,
1468,Tromso,69.6496,18.957,28.4,86,40,11.5,NO,
1469,Alice Springs,-23.7,133.8833,89.6,18,22,14.97,AU,
1470,Longyearbyen,78.2186,15.6401,19.4,73,75,9.22,SJ,
1471,Fengzhen,40.4394,113.1536,24.1,69,0,3.91,CN,
1472,Saint-Louis,16.3333,-15.0,62.6,55,0,2.3,SN,
1473,Balod,20.73,81.2047,83.71,15,2,7.58,IN,
1474,Chuy,-33.6971,-53.4616,65.48,82,0,2.06,UY,
1475,La Montanita,1.4766,-75.4398,72.97,90,99,1.23,CO,
1476,Uddevalla,58.3478,11.9424,23.0,79,40,12.66,SE,
1477,Kudahuvadhoo,2.6708,72.8944,82.0,75,65,15.82,MV,
1478,Verkhnyaya Inta,65.9811,60.3094,-15.41,88,100,17.22,RU,
1479,Tungor,53.3808,142.9564,7.12,94,100,20.24,RU,
1480,Hamina,60.5697,27.1979,19.0,86,90,10.36,FI,
1481,Batemans Bay,-35.7167,150.1833,68.0,79,62,4.0,AU,
1482,Corrente,-3.7367,-43.3394,74.1,93,28,1.86,BR,
1483,Ostrovnoy,68.0531,39.5131,8.08,89,100,12.93,RU,
1484,Thompson,55.7435,-97.8558,-34.6,67,20,12.66,CA,
1485,Turka,49.1541,23.0297,28.0,86,100,8.01,UA,
1486,Ifakara,-8.1333,36.6833,83.55,69,97,3.02,TZ,
1487,Ampanihy,-24.7,44.75,94.32,45,36,1.21,MG,
1488,Los Llanos De Aridane,28.6585,-17.9182,60.8,67,20,5.75,ES,
1489,Kargil,34.5667,76.1,16.39,74,0,0.29,IN,
1490,Herat,34.5,62.0,69.8,18,0,2.3,AF,
1491,Matale,7.4721,80.6234,82.49,62,92,6.76,LK,
1492,Comodoro Rivadavia,-45.8667,-67.5,55.4,82,75,4.14,AR,
1493,Fort Nelson,58.8053,-122.7002,-27.4,68,1,4.61,CA,
1494,Harwich,51.9419,1.2844,32.0,90,100,24.0,GB,
1495,Arlit,18.7369,7.3853,81.75,12,66,10.25,NE,
1496,Ortigueira,-24.2083,-50.9494,59.05,96,28,2.51,BR,
1497,Bulgan,48.8125,103.5347,11.14,89,4,2.64,MN,
1498,Udachnyy,66.4167,112.4,-23.12,84,98,8.55,RU,
1499,Pavino,59.1139,46.1414,-9.98,88,100,10.94,RU,
1500,Farah,32.5,62.5,69.89,18,0,1.63,AF,
1501,Uzhur,55.3036,89.8339,20.7,96,37,6.46,RU,
1502,Tupik,54.4253,119.9327,-14.91,84,20,1.99,RU,
1503,Kihurio,-4.4667,38.0667,85.62,55,60,8.12,TZ,
1504,Newport,51.5877,-2.9984,39.0,82,93,23.31,GB,
1505,Coolum Beach,-26.5333,153.1,79.0,94,99,5.93,AU,
1506,Burgeo,47.6167,-57.6152,29.7,86,82,38.9,CA,
1507,Sao Joao Da Barra,-21.6403,-41.0511,69.8,100,90,4.61,BR,
1508,Miquelon,47.0975,-56.3814,33.19,84,99,44.98,PM,
1509,Port Lincoln,-34.7333,135.8667,62.04,74,4,14.47,AU,
1510,Krasnoselkup,65.7,82.4667,-3.32,92,100,17.36,RU,
1511,Tindivanam,12.25,79.65,86.0,36,12,16.17,IN,
1512,Ndele,8.4109,20.6473,86.77,13,9,9.13,CF,
1513,Cesky Dub,50.6605,14.9962,25.0,98,100,3.62,CZ,
1514,Ngaoundere,7.3167,13.5833,85.78,14,99,8.57,CM,
1515,La Ronge,55.1001,-105.2842,-38.2,67,0,4.61,CA,
1516,Chililabombwe,-12.3648,27.8229,72.75,88,90,9.6,ZM,
1517,Adeje,28.1227,-16.726,64.0,63,20,6.91,ES,
1518,Wolgast,54.05,13.7667,23.0,62,0,14.97,DE,
1519,Mirpur Khas,25.5251,69.0159,86.4,12,0,5.28,PK,
1520,Tigil,57.8,158.6667,31.33,93,79,25.46,RU,
1521,Rio Gallegos,-51.6226,-69.2181,49.3,60,6,5.91,AR,
1522,Kenai,60.5544,-151.2583,12.0,92,90,9.22,US,
1523,Alekseyevsk,57.8406,108.3492,17.47,95,100,13.85,RU,
1524,Portland,45.5234,-122.6762,44.6,87,90,5.75,US,
1525,Kununurra,-15.7667,128.7333,86.0,84,75,5.75,AU,
1526,Camapua,-19.5314,-54.0439,64.62,82,0,3.65,BR,
1527,Beauceville,46.2179,-70.7787,6.8,78,0,2.3,CA,
1528,Ola,59.5833,151.2833,13.44,89,100,23.49,RU,
1529,Chilca,-12.5211,-76.7372,73.0,78,75,4.61,PE,
1530,Teguldet,57.3064,88.1667,35.38,86,21,9.62,RU,
1531,Pampa,35.5362,-100.9599,28.4,93,90,12.66,US,
1532,Ilulissat,69.2167,-51.1,28.4,40,0,27.63,GL,
1533,Torbay,47.6666,-52.7314,32.0,69,90,31.07,CA,
1534,Gobabis,-22.45,18.9667,84.18,32,0,16.87,NA,
1535,Khasan,42.4308,130.6434,15.48,87,9,8.08,RU,
1536,Kotido,2.9806,34.1331,88.16,14,6,13.78,UG,
1537,Souillac,-20.5167,57.5167,87.8,62,40,14.97,MU,
1538,Linhares,-19.3911,-40.0722,74.28,92,99,1.5,BR,
1539,Krasne,49.9145,24.6134,17.6,93,75,15.66,UA,
1540,Cafarnaum,-11.6936,-41.4683,70.95,84,95,1.36,BR,
1541,Nipawin,53.3668,-104.0009,-27.4,68,1,10.36,CA,
1542,Atar,20.5169,-13.0499,59.0,23,0,17.27,MR,
1543,Uni,57.7535,51.4923,-3.96,89,100,12.3,RU,
1544,Mitu,1.1983,-70.1733,71.13,96,100,1.14,CO,
1545,Mordovo,52.0834,40.77,0.28,90,23,12.8,RU,
1546,Pacific Grove,36.6177,-121.9166,44.6,81,20,5.48,US,
1547,Sakiai,54.9547,23.0358,3.2,78,20,3.44,LT,
1548,Rumuruti,0.267,36.5389,74.01,44,94,4.47,KE,
1549,Vila Velha,-20.3297,-40.2925,71.6,88,90,5.75,BR,
1550,Poso,-1.3959,120.7524,81.66,72,100,0.58,ID,
1551,Basoko,1.2391,23.616,90.97,25,41,3.96,CD,
1552,Castle Rock,39.3722,-104.8561,34.0,56,0,1.99,US,
1553,Touros,-5.1989,-35.4608,75.2,88,20,3.44,BR,
1554,Tateyama,34.9833,139.8667,55.0,82,40,5.75,JP,
1555,Ust-Maya,60.4167,134.5333,-30.8,82,11,2.75,RU,
1556,Promyshlennaya,54.9159,85.6385,33.8,86,40,15.66,RU,
1557,Yar-Sale,66.8333,70.8333,-13.41,89,100,24.99,RU,
1558,Binghamton,42.0987,-75.918,19.4,45,1,6.91,US,
1559,Christchurch,-43.5333,172.6333,62.01,88,20,14.97,NZ,
1560,Meulaboh,4.1363,96.1285,85.03,67,85,6.02,ID,
1561,Araouane,18.9048,-3.5265,67.75,26,93,19.35,ML,
1562,Walvis Bay,-22.9575,14.5053,68.0,68,32,9.22,NA,
1563,Solsona,41.994,1.5171,41.0,92,100,3.0,ES,
1564,Broken Hill,-31.95,141.4333,78.8,31,0,14.97,AU,
1565,Ranavav,21.6842,69.7408,84.2,21,0,13.8,IN,
1566,Tezu,27.9167,96.1667,77.79,20,0,3.67,IN,
1567,Yarada,17.65,83.2667,82.4,39,83,12.66,IN,
1568,Miraflores,19.2167,-98.8083,55.4,47,1,2.48,MX,
1569,Nabire,-3.3667,135.4833,79.41,80,100,1.88,ID,
1570,Hope,33.6671,-93.5916,42.01,69,80,1.99,US,
1571,Esmeraldas,-19.7625,-44.3139,68.0,94,75,5.75,BR,
1572,Basco,20.4487,121.9702,74.19,87,100,24.11,PH,
1573,Chanute,37.6792,-95.4572,17.6,79,90,10.36,US,
1574,Chopovychi,50.8332,28.9533,12.9,85,80,5.91,UA,
1575,Stillwater,36.1156,-97.0584,27.0,74,90,4.61,US,
1576,Sarai Sidhu,30.5949,71.9698,73.4,38,0,4.61,PK,
1577,Odweyne,9.4092,45.064,81.7,28,20,4.68,SO,
1578,Ballina,-28.8667,153.5667,78.8,78,90,5.75,AU,
1579,Itaituba,-4.2761,-55.9836,73.06,98,99,2.3,BR,
1580,Tabou,4.423,-7.3528,83.48,74,98,4.5,CI,
1581,Maniitsoq,65.4167,-52.9,31.08,79,0,26.19,GL,
1582,Mokrousovo,55.8103,66.7653,8.65,93,100,23.17,RU,
1583,Katherine,-14.4667,132.2667,73.4,100,75,5.75,AU,
1584,Shubarshi,48.5872,57.1869,21.02,92,62,13.15,KZ,
1585,Constitucion,-35.3333,-72.4167,55.62,91,20,5.23,CL,
1586,Bend,44.0582,-121.3153,37.4,60,1,11.5,US,
1587,Bagdarin,54.4333,113.6,-5.51,85,95,1.19,RU,
1588,Vanavara,60.34,102.2797,20.21,97,100,7.99,RU,
1589,Imbituba,-28.24,-48.6703,66.2,82,0,5.75,BR,
1590,Imeni Stepana Razina,54.8932,44.2963,-2.16,89,100,14.34,RU,
1591,Rajura,19.7833,79.3667,88.0,14,0,6.89,IN,
1592,Goroka,-6.0834,145.3873,63.82,88,100,1.83,PG,
1593,Keskin,39.6731,33.6136,55.0,48,70,1.01,TR,
1594,Tricase,39.9304,18.3553,61.0,88,75,14.97,IT,
1595,Lakes Entrance,-37.8811,147.981,64.0,65,10,12.82,AU,
1596,Istok,42.7808,20.4875,50.0,76,75,1.72,XK,
1597,Kahului,20.8947,-156.47,64.99,77,20,4.88,US,
1598,Shenjiamen,29.9576,122.298,53.62,66,52,6.02,CN,
1599,Norton,-17.8833,30.7,79.0,52,97,3.0,ZW,
1600,Tilichiki,60.4667,166.1,13.42,89,100,14.79,RU,
1601,Pyay,18.8167,95.2167,91.51,26,73,8.03,MM,
1602,San Cristobal,7.7669,-72.225,66.6,84,95,2.77,VE,
1603,Namatanai,-3.6667,152.4333,81.54,78,38,5.82,PG,
1604,Carauari,-4.8828,-66.8958,73.6,98,100,2.24,BR,
1605,Auka,14.9333,-83.8333,70.45,97,22,2.86,HN,
1606,Bandipur,27.9333,84.4167,69.4,27,0,7.25,NP,
1607,Haikou,20.0458,110.3417,75.2,69,0,13.42,CN,
1608,Umm Lajj,25.0213,37.2685,77.74,26,0,12.1,SA,
1609,Saint-Joseph,-21.3667,55.6167,87.8,62,0,10.36,RE,
1610,Kibuye,-2.0597,29.3482,73.4,68,75,4.61,RW,
1611,Borkenes,68.774,16.1739,30.99,96,100,15.99,NO,
1612,Dawei,14.0833,98.2,84.45,54,0,8.55,MM,
1613,Tevaitoa,-16.7833,-151.5,82.11,73,32,12.48,PF,
1614,Kathu,7.9178,98.3332,87.8,66,20,5.75,TH,
1615,Bam,29.106,58.357,77.36,13,0,5.53,IR,
1616,Whitehaven,54.549,-3.5841,33.01,71,4,4.0,GB,
1617,Campeche,19.0,-90.5,65.17,95,18,1.86,MX,
1618,Ojinaga,29.5667,-104.4167,48.2,20,1,10.36,MX,
1619,Saint Anthony,45.0205,-93.218,-11.2,70,1,5.75,US,
1620,Gizo,-8.103,156.8419,83.97,71,99,3.65,SB,
1621,Bilibino,68.0546,166.4372,-4.38,71,0,3.71,RU,
1622,Kampot,10.6167,104.1833,84.2,65,20,8.05,KH,
1623,Kuusamo,65.9667,29.1833,19.4,79,40,12.66,FI,
1624,Mbaiki,3.8678,17.9892,94.64,12,3,6.46,CF,
1625,Luanda,-8.8368,13.2343,82.4,74,75,3.44,AO,
1626,Jonkoping,57.7814,14.1562,19.4,93,90,8.05,SE,
1627,Pevek,69.7008,170.3133,-10.21,86,0,2.13,RU,
1628,Atlantic City,39.3643,-74.4229,42.01,93,90,4.61,US,
1629,Montelimar,44.5584,4.7509,46.99,85,100,6.04,FR,
1630,Mpanda,-6.3655,31.0409,79.11,70,82,4.43,TZ,
1631,Drumnadrochit,57.3344,-4.4799,32.0,74,90,9.22,GB,
1632,Nowy Tomysl,52.3195,16.1284,21.0,58,90,14.97,PL,
1633,Svetlyy,54.675,20.1347,12.0,85,40,2.24,RU,
1634,Zile,40.3031,35.8864,55.4,41,40,3.44,TR,
1635,Muli,2.9167,73.5667,81.97,74,50,16.62,MV,
1636,Vung Tau,10.346,107.0843,78.84,77,30,15.64,VN,
1637,Srednekolymsk,67.45,153.6833,-9.08,85,100,5.3,RU,
1638,Klaksvik,62.2266,-6.589,35.6,64,75,18.41,FO,
1639,Nouadhibou,20.931,-17.0347,60.8,72,0,18.41,MR,
1640,Misratah,32.3754,15.0925,70.9,27,100,14.12,LY,
1641,San Felipe,10.3399,-68.7425,68.97,91,100,3.27,VE,
1642,Mongu,-15.2484,23.1274,82.47,63,95,7.7,ZM,
1643,Staryy Nadym,65.6118,72.6842,-4.61,92,100,22.95,RU,
1644,Portree,57.4129,-6.1942,32.0,79,45,3.0,GB,
1645,Manjacaze,-24.7117,33.8828,90.1,45,88,5.46,MZ,
1646,Hualmay,-11.0964,-77.6139,70.18,77,100,2.15,PE,
1647,Grindavik,63.8424,-22.4338,33.8,60,20,16.11,IS,
1648,Kalakamati,-20.5929,27.3121,80.6,69,75,8.05,BW,
1649,Orsta,62.2029,6.1272,21.99,68,0,7.0,NO,
1650,Whitehorse,60.7161,-135.0538,-11.2,77,75,4.61,CA,
1651,Ossora,59.2353,163.0719,24.94,96,100,39.5,RU,
1652,Port Blair,11.6667,92.75,82.58,67,26,10.71,IN,
1653,Behbahan,30.5959,50.2417,68.0,60,75,13.8,IR,
1654,Vanimo,-2.6741,141.3028,78.69,84,100,4.32,PG,
1655,Gornyy,55.1153,83.9059,33.12,95,99,20.98,RU,
1656,Manthani,18.65,79.6667,89.22,18,39,7.34,IN,
1657,Fourmies,50.0153,4.0478,34.0,98,100,1.01,FR,
1658,Miracema Do Tocantins,-9.5618,-48.3967,72.36,92,100,3.27,BR,
1659,Bouca,6.5105,18.2733,93.87,11,32,6.8,CF,
1660,Itarema,-2.9248,-39.9167,77.36,85,14,8.46,BR,
1661,Darab,28.7519,54.5444,64.69,33,39,13.29,IR,
1662,Lure,47.75,6.5,42.8,93,75,6.91,FR,
1663,Chicama,-7.8447,-79.1469,71.76,68,97,3.13,PE,
1664,Muleba,-1.8397,31.6544,78.8,65,75,5.75,TZ,
1665,Leshukonskoye,64.8989,45.7622,-13.14,86,98,10.96,RU,
1666,Brae,60.3964,-1.353,33.8,55,75,14.97,GB,
1667,Maningrida,-12.0667,134.2667,79.99,81,100,11.12,AU,
1668,Oni,42.5794,43.4425,41.16,75,100,3.83,GE,
1669,Roma,43.2128,-75.4557,10.4,67,1,10.36,US,
1670,Taywarah,33.35,64.4167,48.83,38,0,7.9,AF,
1671,Ajdabiya,30.7554,20.2263,69.31,31,100,16.02,LY,
1672,Hazorasp,41.3194,61.0742,53.6,66,0,11.5,UZ,
1673,Moroto,2.5345,34.6666,85.05,19,1,11.43,UG,
1674,Aasiaat,68.7098,-52.8699,20.64,87,0,19.33,GL,
1675,Taoudenni,22.6783,-3.9836,65.3,27,7,13.69,ML,
1676,Bayangol,50.6977,103.4656,5.43,91,4,2.08,RU,
1677,Seoul,37.5683,126.9778,41.0,25,0,13.8,KR,
1678,Cockburn Town,21.4612,-71.1419,77.43,79,82,21.5,TC,
1679,Luganville,-15.5333,167.1667,79.47,72,51,6.82,VU,
1680,Senneterre,48.3835,-77.2328,6.8,92,90,8.05,CA,
1681,Kargopol,61.5071,38.9456,-6.25,88,19,8.68,RU,
1682,Ribeira Brava,32.65,-17.0667,59.0,81,85,4.0,PT,
1683,Ugoofaaru,5.6667,73.0,81.95,73,72,11.1,MV,
1684,Malumfashi,11.7853,7.6218,79.61,15,16,11.56,NG,
1685,Ewa Beach,21.3156,-158.0072,66.2,68,1,5.75,US,
1686,Kearney,40.6995,-99.0815,5.0,92,90,11.5,US,
1687,Huarmey,-10.0681,-78.1522,70.93,73,100,3.13,PE,
1688,Saint George,37.1041,-113.5841,37.4,44,1,2.48,US,
1689,Deniliquin,-35.5333,144.9667,66.0,53,38,3.0,AU,
1690,Dalianwan,39.0286,121.695,28.4,37,0,11.18,CN,
1691,Marystown,47.1666,-55.1483,32.0,88,84,32.93,CA,
1692,Leh,34.1667,77.5833,23.18,69,0,1.21,IN,
1693,Dauphin,51.1494,-100.0502,-29.2,62,1,10.36,CA,
1694,Cedral,23.8,-100.7333,53.49,85,28,10.8,MX,
1695,Powell River,49.8496,-124.5361,39.2,65,1,11.5,CA,
1696,Cayenne,4.9333,-52.3333,77.0,100,75,1.14,GF,
1697,Galesong,-5.3166,119.3661,86.0,70,20,6.91,ID,
1698,Ubinskoye,55.3068,79.6802,21.36,94,83,23.24,RU,
1699,Glenwood Springs,39.5505,-107.3248,28.0,67,90,6.89,US,
1700,Hobyo,5.3505,48.5268,83.08,59,6,19.53,SO,
1701,Teguise,29.0605,-13.564,60.8,72,75,4.61,ES,
1702,Mehamn,71.0357,27.8492,23.65,93,100,20.13,NO,
1703,Bontang,0.1333,117.5,82.18,76,100,6.11,ID,
1704,Quipapa,-8.8278,-36.0117,73.27,79,91,6.96,BR,
1705,Kodinsk,58.6881,99.1844,27.75,97,98,5.17,RU,
1706,Luderitz,-26.6481,15.1594,81.79,34,0,27.31,NA,
1707,Codrington,-38.2667,141.9667,55.96,74,27,11.41,AU,
1708,Makushino,55.2103,67.2442,7.59,91,100,24.83,RU,
